$GPTXT,01,01,02,u-blox ag - www.u-blox.com*50
$GPTXT,01,01,02,HW  UBX-G50xx  00040005 *53
$GPTXT,01,01,02,EXT CORE 6.02 (36023) Oct 15 2009 16:52:22*47
$GPTXT,01,01,02,ROM BASE 5.00 (28483) Jun  6 2008 14:45:11*4E
$GPTXT,01,01,02,MOD LEA-5H-0*2E
$GPTXT,01,01,02,ANTSUPERV=AC SD PDoS SR*20
$GPTXT,01,01,02,ANTSTATUS=OK*3B
$GPGGA,071707.000,2728.0517,S,15301.1832,E,0,00,99.9,47.7,M,38.6,M,,0000*44
$GPGSA,A,1,,,,,,,,,,,,,99.9,99.9,99.9*09
$GPGSV,4,3,14,16,01,139,,23,43,046,23,27,23,124,18,28,32,312,18*7B
$GPGLL,2728.0517,S,15301.1832,E,071707.000,V,N*58
$GPGGA,071708.000,2728.0517,S,15301.1832,E,0,00,99.9,47.7,M,38.6,M,,0000*4B
$GPGSA,A,1,,,,,,,,,,,,,99.9,99.9,99.9*09
$GPGSV,4,3,14,16,01,139,,23,43,046,23,27,23,124,18,28,32,312,16*75
$GPGLL,2728.0517,S,15301.1832,E,071708.000,V,N*57
$GPGGA,071709.000,2728.0517,S,15301.1832,E,0,00,99.9,47.7,M,38.6,M,,0000*4A
$GPGSA,A,1,,,,,,,,,,,,,99.9,99.9,99.9*09
$GPGSV,4,3,14,16,01,139,29,23,43,046,23,27,23,124,20,28,32,312,16*75
$GPGLL,2728.0517,S,15301.1832,E,071709.000,V,N*56
$GPGGA,071710.000,2728.0517,S,15301.1832,E,0,00,99.9,47.7,M,38.6,M,,0000*42
$GPGSA,A,1,,,,,,,,,,,,,99.9,99.9,99.9*09
$GPGSV,4,2,13,08,42,086,16,09,82,072,17,11,11,043,16,16,01,139,22*77
$GPGSV,4,3,13,23,43,046,24,27,23,124,20,28,32,312,14,30,36,236,16*77
$GPGLL,2728.0517,S,15301.1832,E,071710.000,V,N*5E
$GPGGA,071711.000,2728.0517,S,15301.1832,E,0,00,99.9,47.7,M,38.6,M,,0000*43
$GPGSA,A,1,,,,,,,,,,,,,99.9,99.9,99.9*09
$GPGSV,4,2,13,08,42,086,14,09,82,072,20,11,11,043,15,16,01,139,20*70
$GPGSV,4,3,13,23,43,046,23,27,23,124,21,28,32,312,13,30,36,236,14*74
$GPGLL,2728.0517,S,15301.1832,E,071711.000,V,N*5F
$GPGGA,071712.000,2728.0517,S,15301.1832,E,0,00,99.9,47.7,M,38.6,M,,0000*40
$GPGSA,A,1,,,,,,,,,,,,,99.9,99.9,99.9*09
$GPGSV,4,3,14,16,01,139,17,23,43,046,24,27,23,124,20,28,32,312,*78
$GPGLL,2728.0517,S,15301.1832,E,071712.000,V,N*5C
$GPGGA,071713.000,2728.0517,S,15301.1832,E,0,00,99.9,47.7,M,38.6,M,,0000*41
$GPGSA,A,1,,,,,,,,,,,,,99.9,99.9,99.9*09
$GPGSV,4,3,14,16,01,139,18,23,43,046,23,27,23,124,19,28,32,312,27*7F
$GPGLL,2728.0517,S,15301.1832,E,071713.000,V,N*5D
$GPGGA,071714.000,2728.0517,S,15301.1832,E,0,00,99.9,47.7,M,38.6,M,,0000*46
$GPGSA,A,1,,,,,,,,,,,,,99.9,99.9,99.9*09
$GPGSV,4,3,14,16,01,139,18,23,43,046,23,27,23,124,20,28,32,312,25*77
$GPGLL,2728.0517,S,15301.1832,E,071714.000,V,N*5A
$GPGGA,071715.000,2728.0517,S,15301.1832,E,0,00,99.9,47.7,M,38.6,M,,0000*47
$GPGSA,A,1,,,,,,,,,,,,,99.9,99.9,99.9*09
$GPGLL,2728.0517,S,15301.1832,E,071715.000,V,N*5B
$GPGGA,071716.000,2728.0517,S,15301.1832,E,0,00,99.9,47.7,M,38.6,M,,0000*44
$GPGSA,A,1,,,,,,,,,,,,,99.9,99.9,99.9*09
$GPGLL,2728.0517,S,15301.1832,E,071716.000,V,N*58
$GPGGA,071717.000,2728.0517,S,15301.1832,E,0,00,99.9,47.7,M,38.6,M,,0000*45
$GPGSA,A,1,,,,,,,,,,,,,99.9,99.9,99.9*09
$GPGLL,2728.0517,S,15301.1832,E,071717.000,V,N*59
$GPGGA,071718.000,2728.0517,S,15301.1832,E,0,00,99.9,47.7,M,38.6,M,,0000*4A
$GPGSA,A,1,,,,,,,,,,,,,99.9,99.9,99.9*09
$GPGLL,2728.0517,S,15301.1832,E,071718.000,V,N*56
$GPGGA,071719.000,2728.0517,S,15301.1832,E,0,00,99.9,47.7,M,38.6,M,,0000*4B
$GPGSA,A,1,,,,,,,,,,,,,99.9,99.9,99.9*09
$GPGLL,2728.0517,S,15301.1832,E,071719.000,V,N*57
$GPGGA,071720.000,2728.0517,S,15301.1832,E,0,00,99.9,47.7,M,38.6,M,,0000*41
$GPGSA,A,1,,,,,,,,,,,,,99.9,99.9,99.9*09
$GPGLL,2728.0517,S,15301.1832,E,071720.000,V,N*5D
$GPGGA,071721.000,2728.0517,S,15301.1832,E,0,00,99.9,47.7,M,38.6,M,,0000*40
$GPGSA,A,1,,,,,,,,,,,,,99.9,99.9,99.9*09
$GPGLL,2728.0517,S,15301.1832,E,071721.000,V,N*5C
$GPGGA,071722.000,2728.0517,S,15301.1832,E,0,00,99.9,47.7,M,38.6,M,,0000*43
$GPGSA,A,1,,,,,,,,,,,,,99.9,99.9,99.9*09
$GPGLL,2728.0517,S,15301.1832,E,071722.000,V,N*5F
$GPGGA,071723.000,2728.0517,S,15301.1832,E,0,00,99.9,47.7,M,38.6,M,,0000*42
$GPGSA,A,1,,,,,,,,,,,,,99.9,99.9,99.9*09
$GPGLL,2728.0517,S,15301.1832,E,071723.000,V,N*5E
$GPGGA,071724.000,2728.0517,S,15301.1832,E,0,00,99.9,47.7,M,38.6,M,,0000*45
$GPGSA,A,1,,,,,,,,,,,,,99.9,99.9,99.9*09
$GPGLL,2728.0517,S,15301.1832,E,071724.000,V,N*59
$GPGGA,071725.000,2728.0517,S,15301.1832,E,0,00,99.9,47.7,M,38.6,M,,0000*44
$GPGSA,A,1,,,,,,,,,,,,,99.9,99.9,99.9*09
$GPGLL,2728.0517,S,15301.1832,E,071725.000,V,N*58
$GPGGA,071726.000,2728.0517,S,15301.1832,E,0,00,99.9,47.7,M,38.6,M,,0000*47
$GPGSA,A,1,,,,,,,,,,,,,99.9,99.9,99.9*09
$GPGLL,2728.0517,S,15301.1832,E,071726.000,V,N*5B
$GPGGA,071727.000,2728.0517,S,15301.1832,E,0,00,99.9,47.7,M,38.6,M,,0000*46
$GPGSA,A,1,,,,,,,,,,,,,99.9,99.9,99.9*09
$GPGLL,2728.0517,S,15301.1832,E,071727.000,V,N*5A
$GPGGA,071728.000,2728.0517,S,15301.1832,E,0,00,99.9,47.7,M,38.6,M,,0000*49
$GPGSA,A,1,,,,,,,,,,,,,99.9,99.9,99.9*09
$GPGLL,2728.0517,S,15301.1832,E,071728.000,V,N*55
$GPGGA,071729.000,2728.0517,S,15301.1832,E,0,00,99.9,47.7,M,38.6,M,,0000*48
$GPGSA,A,1,,,,,,,,,,,,,99.9,99.9,99.9*09
$GPGLL,2728.0517,S,15301.1832,E,071729.000,V,N*54
$GPGGA,071730.000,2728.0517,S,15301.1832,E,0,00,99.9,47.7,M,38.6,M,,0000*40
$GPGSA,A,1,,,,,,,,,,,,,99.9,99.9,99.9*09
$GPGLL,2728.0517,S,15301.1832,E,071730.000,V,N*5C
$GPGGA,071731.000,2728.0517,S,15301.1832,E,0,00,99.9,47.7,M,38.6,M,,0000*41
$GPGSA,A,1,,,,,,,,,,,,,99.9,99.9,99.9*09
$GPGLL,2728.0517,S,15301.1832,E,071731.000,V,N*5D
$GPGGA,071732.000,2728.0517,S,15301.1832,E,0,00,99.9,47.7,M,38.6,M,,0000*42
$GPGSA,A,1,,,,,,,,,,,,,99.9,99.9,99.9*09
$GPGLL,2728.0517,S,15301.1832,E,071732.000,V,N*5E
$GPGGA,071733.000,2728.0517,S,15301.1832,E,0,00,99.9,47.7,M,38.6,M,,0000*43
$GPGSA,A,1,,,,,,,,,,,,,99.9,99.9,99.9*09
$GPGLL,2728.0517,S,15301.1832,E,071733.000,V,N*5F
$GPGGA,071734.000,2728.0517,S,15301.1832,E,0,00,99.9,47.7,M,38.6,M,,0000*44
$GPGSA,A,1,,,,,,,,,,,,,99.9,99.9,99.9*09
$GPGLL,2728.0517,S,15301.1832,E,071734.000,V,N*58
$GPGGA,071735.000,2728.0517,S,15301.1832,E,0,00,99.9,47.7,M,38.6,M,,0000*45
$GPGSA,A,1,,,,,,,,,,,,,99.9,99.9,99.9*09
$GPGLL,2728.0517,S,15301.1832,E,071735.000,V,N*59
$GPGGA,071736.000,2728.0517,S,15301.1832,E,0,00,99.9,47.7,M,38.6,M,,0000*46
$GPGSA,A,1,,,,,,,,,,,,,99.9,99.9,99.9*09
$GPGLL,2728.0517,S,15301.1832,E,071736.000,V,N*5A
$GPGGA,071737.000,2728.0517,S,15301.1832,E,0,00,99.9,47.7,M,38.6,M,,0000*47
$GPGSA,A,1,,,,,,,,,,,,,99.9,99.9,99.9*09
$GPGLL,2728.0517,S,15301.1832,E,071737.000,V,N*5B
$GPGGA,071738.000,2728.0517,S,15301.1832,E,0,00,99.9,47.7,M,38.6,M,,0000*48
$GPGSA,A,1,,,,,,,,,,,,,99.9,99.9,99.9*09
$GPGLL,2728.0517,S,15301.1832,E,071738.000,V,N*54
$GPGGA,071739.000,2728.0517,S,15301.1832,E,0,00,99.9,47.7,M,38.6,M,,0000*49
$GPGSA,A,1,,,,,,,,,,,,,99.9,99.9,99.9*09
$GPGLL,2728.0517,S,15301.1832,E,071739.000,V,N*55
$GPGGA,071740.000,2728.0517,S,15301.1832,E,0,00,99.9,47.7,M,38.6,M,,0000*47
$GPGSA,A,1,,,,,,,,,,,,,99.9,99.9,99.9*09
$GPGLL,2728.0517,S,15301.1832,E,071740.000,V,N*5B
$GPGGA,071741.000,2728.0517,S,15301.1832,E,0,00,99.9,47.7,M,38.6,M,,0000*46
$GPGSA,A,1,,,,,,,,,,,,,99.9,99.9,99.9*09
$GPGLL,2728.0517,S,15301.1832,E,071741.000,V,N*5A
$GPGGA,071742.000,2728.0517,S,15301.1832,E,0,00,99.9,47.7,M,38.6,M,,0000*45
$GPGSA,A,1,,,,,,,,,,,,,99.9,99.9,99.9*09
$GPGLL,2728.0517,S,15301.1832,E,071742.000,V,N*59
$GPGGA,071743.000,2728.0517,S,15301.1832,E,0,00,99.9,47.7,M,38.6,M,,0000*44
$GPGSA,A,1,,,,,,,,,,,,,99.9,99.9,99.9*09
$GPGSV,5,4,17,23,43,046,23,27,23,124,19,28,32,312,23,30,36,236,*7B
$GPGLL,2728.0517,S,15301.1832,E,071743.000,V,N*58
$GPGGA,071744.000,2728.0517,S,15301.1832,E,0,00,99.9,47.7,M,38.6,M,,0000*43
$GPGSA,A,1,,,,,,,,,,,,,99.9,99.9,99.9*09
$GPGSV,5,4,17,23,43,046,23,27,23,124,20,28,32,312,22,30,36,236,*70
$GPGLL,2728.0517,S,15301.1832,E,071744.000,V,N*5F
$GPGGA,071745.000,2728.0517,S,15301.1832,E,0,00,99.9,47.7,M,38.6,M,,0000*42
$GPGSA,A,1,,,,,,,,,,,,,99.9,99.9,99.9*09
$GPGSV,5,4,17,23,43,046,23,27,23,124,19,28,32,312,23,30,36,236,*7B
$GPGLL,2728.0517,S,15301.1832,E,071745.000,V,N*5E
$GPGGA,071746.000,2728.0517,S,15301.1832,E,0,00,99.9,47.7,M,38.6,M,,0000*41
$GPGSA,A,1,,,,,,,,,,,,,99.9,99.9,99.9*09
$GPGSV,5,4,17,23,43,046,23,27,23,124,17,28,32,312,22,30,36,236,*74
$GPGLL,2728.0517,S,15301.1832,E,071746.000,V,N*5D
$GPGGA,071747.000,2728.0517,S,15301.1832,E,0,00,99.9,47.7,M,38.6,M,,0000*40
$GPGSA,A,1,,,,,,,,,,,,,99.9,99.9,99.9*09
$GPGSV,5,4,17,23,43,046,22,27,23,124,14,28,32,312,22,30,36,236,*76
$GPGLL,2728.0517,S,15301.1832,E,071747.000,V,N*5C
$GPGGA,071748.000,2728.0517,S,15301.1832,E,0,00,99.9,47.7,M,38.6,M,,0000*4F
$GPGSA,A,1,,,,,,,,,,,,,99.9,99.9,99.9*09
$GPGSV,5,4,17,23,43,046,22,27,23,124,15,28,32,312,22,30,36,236,*77
$GPGLL,2728.0517,S,15301.1832,E,071748.000,V,N*53
$GPGGA,071749.000,2728.0517,S,15301.1832,E,0,00,99.9,47.7,M,38.6,M,,0000*4E
$GPGSA,A,1,,,,,,,,,,,,,99.9,99.9,99.9*09
$GPGSV,5,4,17,23,43,046,23,27,23,124,16,28,32,312,22,30,36,236,*75
$GPGLL,2728.0517,S,15301.1832,E,071749.000,V,N*52
$GPGGA,071750.000,2728.0517,S,15301.1832,E,0,00,99.9,47.7,M,38.6,M,,0000*46
$GPGSA,A,1,,,,,,,,,,,,,99.9,99.9,99.9*09
$GPGSV,5,4,17,23,43,046,22,27,23,124,17,28,32,312,22,30,36,236,*75
$GPGLL,2728.0517,S,15301.1832,E,071750.000,V,N*5A
$GPGGA,071751.000,2728.0517,S,15301.1832,E,0,00,99.9,47.7,M,38.6,M,,0000*47
$GPGSA,A,1,,,,,,,,,,,,,99.9,99.9,99.9*09
$GPGSV,5,4,17,23,43,046,22,27,23,124,17,28,32,312,23,30,36,236,*74
$GPGLL,2728.0517,S,15301.1832,E,071751.000,V,N*5B
$GPGGA,071752.000,2728.0517,S,15301.1832,E,0,00,99.9,47.7,M,38.6,M,,0000*44
$GPGSA,A,1,,,,,,,,,,,,,99.9,99.9,99.9*09
$GPGSV,5,4,17,23,43,046,21,27,23,124,15,28,32,312,23,30,36,236,*75
$GPGLL,2728.0517,S,15301.1832,E,071752.000,V,N*58
$GPGGA,071753.000,2728.0517,S,15301.1832,E,0,00,99.9,47.7,M,38.6,M,,0000*45
$GPGSA,A,1,,,,,,,,,,,,,99.9,99.9,99.9*09
$GPGSV,5,4,17,23,43,046,21,27,23,124,16,28,32,312,21,30,36,236,*74
$GPGLL,2728.0517,S,15301.1832,E,071753.000,V,N*59
$GPGGA,071754.000,2728.0517,S,15301.1832,E,0,00,99.9,47.7,M,38.6,M,,0000*42
$GPGSA,A,1,,,,,,,,,,,,,99.9,99.9,99.9*09
$GPGSV,5,4,17,23,43,046,22,27,23,124,16,28,32,312,20,30,36,236,*76
$GPGLL,2728.0517,S,15301.1832,E,071754.000,V,N*5E
$GPGGA,071755.000,2728.0517,S,15301.1832,E,0,00,99.9,47.7,M,38.6,M,,0000*43
$GPGSA,A,1,,,,,,,,,,,,,99.9,99.9,99.9*09
$GPGLL,2728.0517,S,15301.1832,E,071755.000,V,N*5F
$GPGGA,071756.000,2728.0517,S,15301.1832,E,0,00,99.9,47.7,M,38.6,M,,0000*40
$GPGSA,A,1,,,,,,,,,,,,,99.9,99.9,99.9*09
$GPGSV,5,1,18,03,02,008,,05,07,224,,07,53,196,,08,42,087,*75
$GPGLL,2728.0517,S,15301.1832,E,071756.000,V,N*5C
$GPGGA,071757.000,2728.0517,S,15301.1832,E,0,00,99.9,47.7,M,38.6,M,,0000*41
$GPGSA,A,1,,,,,,,,,,,,,99.9,99.9,99.9*09
$GPGSV,5,1,18,03,02,008,,05,07,224,,07,53,196,,08,42,087,*75
$GPGLL,2728.0517,S,15301.1832,E,071757.000,V,N*5D
$GPGGA,071758.000,2728.0517,S,15301.1832,E,0,00,99.9,47.7,M,38.6,M,,0000*4E
$GPGSA,A,1,,,,,,,,,,,,,99.9,99.9,99.9*09
$GPGSV,5,1,18,03,02,008,,05,07,224,,07,53,196,,08,42,087,*75
$GPGLL,2728.0517,S,15301.1832,E,071758.000,V,N*52
$GPGGA,071759.000,2728.0517,S,15301.1832,E,0,00,99.9,47.7,M,38.6,M,,0000*4F
$GPGSA,A,1,,,,,,,,,,,,,99.9,99.9,99.9*09
$GPGSV,5,1,18,03,02,008,,05,07,224,,07,53,196,,08,42,087,*75
$GPGLL,2728.0517,S,15301.1832,E,071759.000,V,N*53
$GPGGA,071800.000,2728.0517,S,15301.1832,E,0,00,99.9,47.7,M,38.6,M,,0000*4C
$GPGSA,A,1,,,,,,,,,,,,,99.9,99.9,99.9*09
$GPGSV,5,1,18,03,02,008,,05,07,224,,07,53,196,,08,42,087,*75
$GPGLL,2728.0517,S,15301.1832,E,071800.000,V,N*50
$GPGGA,071801.000,2728.0517,S,15301.1832,E,0,00,99.9,47.7,M,38.6,M,,0000*4D
$GPGSA,A,1,,,,,,,,,,,,,99.9,99.9,99.9*09
$GPGSV,5,1,18,03,02,008,,05,07,224,,07,53,196,,08,42,087,*75
$GPGLL,2728.0517,S,15301.1832,E,071801.000,V,N*51
$GPGGA,071802.000,2728.0517,S,15301.1832,E,0,00,99.9,47.7,M,38.6,M,,0000*4E
$GPGSA,A,1,,,,,,,,,,,,,99.9,99.9,99.9*09
$GPGSV,5,1,18,03,02,008,,05,07,224,,07,53,196,,08,42,087,*75
$GPGLL,2728.0517,S,15301.1832,E,071802.000,V,N*52
$GPGGA,071803.000,2728.0517,S,15301.1832,E,0,00,99.9,47.7,M,38.6,M,,0000*4F
$GPGSA,A,1,,,,,,,,,,,,,99.9,99.9,99.9*09
$GPGSV,5,1,18,03,02,008,,05,07,224,,07,53,196,,08,42,087,*75
$GPGLL,2728.0517,S,15301.1832,E,071803.000,V,N*53
$GPGGA,071804.000,2728.0517,S,15301.1832,E,0,00,99.9,47.7,M,38.6,M,,0000*48
$GPGSA,A,1,,,,,,,,,,,,,99.9,99.9,99.9*09
$GPGSV,5,1,18,03,02,008,,05,07,224,,07,53,196,,08,42,087,*75
$GPGLL,2728.0517,S,15301.1832,E,071804.000,V,N*54
$GPGGA,071805.000,2728.0517,S,15301.1832,E,0,00,99.9,47.7,M,38.6,M,,0000*49
$GPGSA,A,1,,,,,,,,,,,,,99.9,99.9,99.9*09
$GPGSV,5,1,18,03,02,008,,05,07,224,,07,53,196,,08,42,087,*75
$GPGLL,2728.0517,S,15301.1832,E,071805.000,V,N*55
$GPGGA,071806.000,2728.0517,S,15301.1832,E,0,00,99.9,47.7,M,38.6,M,,0000*4A
$GPGSA,A,1,,,,,,,,,,,,,99.9,99.9,99.9*09
$GPGSV,5,1,18,03,02,008,,05,07,224,,07,53,196,,08,42,087,*75
$GPGLL,2728.0517,S,15301.1832,E,071806.000,V,N*56
$GPGGA,071807.000,2728.0517,S,15301.1832,E,0,00,99.9,47.7,M,38.6,M,,0000*4B
$GPGSA,A,1,,,,,,,,,,,,,99.9,99.9,99.9*09
$GPGSV,5,1,18,03,02,008,,05,07,224,,07,53,196,,08,42,087,*75
$GPGLL,2728.0517,S,15301.1832,E,071807.000,V,N*57
$GPGGA,071808.000,2728.0517,S,15301.1832,E,0,00,99.9,47.7,M,38.6,M,,0000*44
$GPGSA,A,1,,,,,,,,,,,,,99.9,99.9,99.9*09
$GPGSV,5,1,18,03,02,008,,05,07,224,,07,53,196,,08,42,087,*75
$GPGLL,2728.0517,S,15301.1832,E,071808.000,V,N*58
$GPGGA,071809.000,2728.0517,S,15301.1832,E,0,00,99.9,47.7,M,38.6,M,,0000*45
$GPGSA,A,1,,,,,,,,,,,,,99.9,99.9,99.9*09
$GPGSV,5,1,18,03,02,008,,05,07,224,,07,53,196,,08,42,087,*75
$GPGLL,2728.0517,S,15301.1832,E,071809.000,V,N*59
$GPGGA,071809.470,4646.3124,N,00432.6297,E,0,06,5.5,39.1,M,47.1,M,,0000*6D
$GPGSA,A,1,25,29,14,24,32,12,,,,,,,5.6,5.5,1.0*3F
$GPGSV,3,1,12,02,12,119,,06,16,078,,10,05,262,,12,82,341,40*77
$GPGSV,3,2,12,14,14,320,39,15,14,177,,17,13,037,,19,32,049,27*71
$GPGSV,3,3,12,24,64,117,46,25,43,257,49,29,06,196,43,32,35,303,46*77
$GPGLL,4646.3124,N,00432.6297,E,071809.470,V,N*4E
$GPGGA,071809.970,4646.3197,N,00432.6331,E,0,03,5.5,35.3,M,47.1,M,,0000*6E
$GPGSA,A,1,14,32,12,,,,,,,,,,5.6,5.5,1.0*35
$GPGSV,3,1,12,02,12,119,,06,16,078,,10,05,262,,12,82,341,40*77
$GPGSV,3,2,12,14,14,320,39,15,14,177,,17,13,037,,19,32,049,27*71
$GPGSV,3,3,12,24,64,117,46,25,43,257,49,29,06,196,43,32,35,303,46*77
$GPGLL,4646.3197,N,00432.6331,E,071809.970,V,N*46
$GPGGA,071811.000,4646.3213,N,00432.6341,E,0,03,5.5,36.1,M,47.1,M,,0000*60
$GPGSA,A,1,14,32,12,,,,,,,,,,5.6,5.5,1.0*35
$GPGSV,3,1,12,02,12,119,,06,16,078,,10,05,262,,12,82,341,40*77
$GPGSV,3,2,12,14,14,320,39,15,14,177,,17,13,037,,19,32,049,28*7E
$GPGSV,3,3,12,24,64,117,47,25,43,257,50,29,06,196,44,32,35,303,47*78
$GPGLL,4646.3213,N,00432.6341,E,071811.000,V,N*49
$GPGGA,071812.000,4646.3222,N,00432.6346,E,1,03,5.5,36.5,M,47.1,M,,0000*63
$GPGSA,A,2,14,32,12,,,,,,,,,,5.6,5.5,1.0*36
$GPGSV,3,1,12,02,12,119,28,06,16,078,,10,05,262,,12,82,341,41*7C
$GPGSV,3,2,12,14,14,320,39,15,14,177,30,17,13,037,30,19,32,049,28*7E
$GPGSV,3,3,12,24,64,117,47,25,43,257,50,29,06,196,44,32,35,303,47*78
$GPGLL,4646.3222,N,00432.6346,E,071812.000,A,A*57
$GPGGA,071813.000,4646.3229,N,00432.6351,E,1,03,5.5,36.9,M,47.1,M,,0000*63
$GPGSA,A,2,14,32,12,,,,,,,,,,5.6,5.5,1.0*36
$GPGSV,3,1,12,02,12,119,28,06,16,078,25,10,05,262,,12,82,341,41*7B
$GPGSV,3,2,12,14,14,320,39,15,14,177,32,17,13,037,31,19,32,049,27*72
$GPGSV,3,3,12,24,64,117,47,25,43,257,50,29,06,196,44,32,35,303,47*78
$GPGLL,4646.3229,N,00432.6351,E,071813.000,A,A*5B
$GPGGA,071814.000,4646.3233,N,00432.6355,E,1,03,5.5,37.2,M,47.1,M,,0000*61
$GPGSA,A,2,14,32,12,,,,,,,,,,5.6,5.5,1.0*36
$GPGSV,3,1,12,02,12,119,30,06,16,078,26,10,05,262,,12,82,341,40*70
$GPGSV,3,2,12,14,14,320,40,15,14,177,32,17,13,037,31,19,32,049,27*7C
$GPGSV,3,3,12,24,64,117,47,25,43,257,50,29,06,196,44,32,35,303,47*78
$GPGLL,4646.3233,N,00432.6355,E,071814.000,A,A*53
$GPGGA,071815.000,4646.3235,N,00432.6356,E,1,03,5.5,37.4,M,47.1,M,,0000*63
$GPGSA,A,2,14,32,12,,,,,,,,,,5.6,5.5,1.0*36
$GPGSV,3,1,12,02,12,119,30,06,16,078,24,10,05,262,,12,82,341,40*72
$GPGSV,3,2,12,14,14,320,40,15,14,177,31,17,13,037,30,19,32,049,27*7E
$GPGSV,3,3,12,24,64,117,47,25,43,257,50,29,06,196,44,32,35,303,47*78
$GPGLL,4646.3235,N,00432.6356,E,071815.000,A,A*57
$GPGGA,071816.000,4646.3236,N,00432.6357,E,1,03,5.5,37.7,M,47.1,M,,0000*61
$GPGSA,A,2,14,32,12,,,,,,,,,,5.6,5.5,1.0*36
$GPGSV,3,1,12,02,12,119,30,06,16,078,21,10,05,262,,12,82,341,40*77
$GPGSV,3,2,12,14,14,320,40,15,14,177,30,17,13,037,27,19,32,049,28*76
$GPGSV,3,3,12,24,64,117,47,25,43,257,50,29,06,196,45,32,35,303,46*78
$GPGLL,4646.3236,N,00432.6357,E,071816.000,A,A*56
$GPGGA,071817.000,4646.3236,N,00432.6357,E,1,03,5.5,37.8,M,47.1,M,,0000*6F
$GPGSA,A,2,14,32,12,,,,,,,,,,5.6,5.5,1.0*36
$GPGSV,3,1,12,02,12,119,31,06,16,078,19,10,05,262,,12,82,341,40*7D
$GPGSV,3,2,12,14,14,320,39,15,14,177,28,17,13,037,26,19,32,049,29*71
$GPGSV,3,3,12,24,64,117,47,25,43,257,50,29,06,196,45,32,35,303,46*78
$GPGLL,4646.3236,N,00432.6357,E,071817.000,A,A*57
$GPGGA,071818.000,4646.3237,N,00432.6357,E,1,03,5.5,38.0,M,47.1,M,,0000*66
$GPGSA,A,2,14,32,12,,,,,,,,,,5.6,5.5,1.0*36
$GPGSV,3,1,12,02,12,119,30,06,16,078,20,10,05,262,,12,82,341,40*76
$GPGSV,3,2,12,14,14,320,40,15,14,177,28,17,13,037,26,19,32,049,29*7F
$GPGSV,3,3,12,24,64,117,47,25,43,257,50,29,06,196,45,32,35,303,46*78
$GPGLL,4646.3237,N,00432.6357,E,071818.000,A,A*59
$GPGGA,071819.000,4646.3236,N,00432.6354,E,1,03,5.5,38.1,M,47.1,M,,0000*64
$GPGSA,A,2,14,32,12,,,,,,,,,,5.6,5.5,1.0*36
$GPGSV,3,1,12,02,12,119,30,06,16,078,23,10,05,262,,12,82,341,40*75
$GPGSV,3,2,12,14,14,320,39,15,14,177,30,17,13,037,26,19,32,049,29*78
$GPGSV,3,3,12,24,64,117,47,25,43,257,50,29,06,196,44,32,35,303,46*79
$GPGLL,4646.3236,N,00432.6354,E,071819.000,A,A*5A
$GPGGA,071820.000,4646.3235,N,00432.6353,E,1,03,5.5,38.2,M,47.1,M,,0000*69
$GPGSA,A,2,14,32,12,,,,,,,,,,5.6,5.5,1.0*36
$GPGSV,3,1,12,02,12,119,30,06,16,078,25,10,05,262,,12,82,341,40*73
$GPGSV,3,2,12,14,14,320,39,15,14,177,30,17,13,037,26,19,32,049,28*79
$GPGSV,3,3,12,24,64,117,47,25,43,257,50,29,06,196,44,32,35,303,46*79
$GPGLL,4646.3235,N,00432.6353,E,071820.000,A,A*54
$GPGGA,071821.000,4646.3234,N,00432.6352,E,1,03,5.5,38.2,M,47.1,M,,0000*68
$GPGSA,A,2,14,32,12,,,,,,,,,,5.6,5.5,1.0*36
$GPGSV,3,1,12,02,12,119,30,06,16,078,24,10,05,262,,12,82,341,40*72
$GPGSV,3,2,12,14,14,320,39,15,14,177,30,17,13,037,26,19,32,049,30*70
$GPGSV,3,3,12,24,64,117,47,25,43,257,50,29,06,196,44,32,35,303,46*79
$GPGLL,4646.3234,N,00432.6352,E,071821.000,A,A*55
$GPGGA,071822.000,4646.3233,N,00432.6349,E,1,03,5.5,38.3,M,47.1,M,,0000*67
$GPGSA,A,2,14,32,12,,,,,,,,,,5.5,5.5,1.0*35
$GPGSV,3,1,12,02,12,119,29,06,16,078,23,10,05,262,,12,82,341,40*7D
$GPGSV,3,2,12,14,14,320,39,15,14,177,30,17,13,037,24,19,32,049,31*73
$GPGSV,3,3,12,24,64,117,47,25,43,257,50,29,06,196,44,32,35,303,46*79
$GPGLL,4646.3233,N,00432.6349,E,071822.000,A,A*5B
$GPGGA,071823.000,4646.3231,N,00432.6344,E,1,03,5.5,38.3,M,47.1,M,,0000*69
$GPGSA,A,2,14,32,12,,,,,,,,,,5.5,5.5,1.0*35
$GPGSV,3,1,12,02,12,119,29,06,16,078,25,10,05,262,,12,82,341,40*7B
$GPGSV,3,2,12,14,14,320,38,15,14,177,29,17,13,037,21,19,32,049,31*7F
$GPGSV,3,3,12,24,64,117,47,25,43,257,50,29,06,196,44,32,35,303,46*79
$GPGLL,4646.3231,N,00432.6344,E,071823.000,A,A*55
$GPGGA,071824.000,4646.3232,N,00432.6342,E,1,03,5.5,38.4,M,47.1,M,,0000*6C
$GPGSA,A,2,14,32,12,,,,,,,,,,5.5,5.5,1.0*35
$GPGSV,3,1,12,02,12,119,29,06,16,078,26,10,05,262,,12,82,341,40*78
$GPGSV,3,2,12,14,14,320,38,15,14,177,30,17,13,037,21,19,32,049,30*76
$GPGSV,3,3,12,24,64,117,47,25,43,257,50,29,06,196,44,32,35,303,46*79
$GPGLL,4646.3232,N,00432.6342,E,071824.000,A,A*57
$GPGGA,071825.000,4646.4662,N,00432.6195,E,1,04,3.9,273.7,M,47.1,M,,0000*50
$GPGSA,A,3,29,14,32,12,,,,,,,,,4.7,3.9,2.5*30
$GPGSV,3,1,12,02,12,119,28,06,16,078,27,10,05,262,,12,82,341,41*79
$GPGSV,3,2,12,14,14,320,38,15,14,177,28,17,13,037,22,19,32,049,31*7D
$GPGSV,3,3,12,24,64,117,47,25,43,257,50,29,06,196,45,32,35,303,46*78
$GPGLL,4646.4662,N,00432.6195,E,071825.000,A,A*58
$GPGGA,071826.000,4646.4661,N,00432.6190,E,1,04,3.9,273.5,M,47.1,M,,0000*57
$GPGSA,A,3,29,14,32,12,,,,,,,,,4.7,3.9,2.5*30
$GPGSV,3,1,12,02,12,119,29,06,16,078,27,10,05,262,,12,82,341,41*78
$GPGSV,3,2,12,14,14,320,38,15,14,177,29,17,13,037,23,19,32,049,31*7D
$GPGSV,3,3,12,24,64,117,47,25,43,257,50,29,06,196,45,32,35,303,46*78
$GPGLL,4646.4661,N,00432.6190,E,071826.000,A,A*5D
$GPGGA,071827.000,4646.4660,N,00432.6185,E,1,04,3.9,273.6,M,47.1,M,,0000*50
$GPGSA,A,3,29,14,32,12,,,,,,,,,4.7,3.9,2.5*30
$GPGSV,3,1,12,02,12,119,29,06,16,078,27,10,05,262,,12,82,341,41*78
$GPGSV,3,2,12,14,14,320,38,15,14,177,28,17,13,037,23,19,32,049,29*75
$GPGSV,3,3,12,24,64,117,47,25,43,257,50,29,06,196,45,32,35,303,46*78
$GPGLL,4646.4660,N,00432.6185,E,071827.000,A,A*59
$GPGGA,071828.000,4646.4659,N,00432.6184,E,1,04,3.9,273.5,M,47.1,M,,0000*57
$GPGSA,A,3,29,14,32,12,,,,,,,,,4.7,3.9,2.5*30
$GPGSV,3,1,12,02,12,119,29,06,16,078,27,10,05,262,,12,82,341,40*79
$GPGSV,3,2,12,14,14,320,38,15,14,177,29,17,13,037,23,19,32,049,29*74
$GPGSV,3,3,12,24,64,117,47,25,43,257,50,29,06,196,44,32,35,303,46*79
$GPGLL,4646.4659,N,00432.6184,E,071828.000,A,A*5D
$GPGGA,071829.000,4646.4659,N,00432.6185,E,1,04,3.9,273.5,M,47.1,M,,0000*57
$GPGSA,A,3,29,14,32,12,,,,,,,,,4.7,3.9,2.5*30
$GPGSV,3,1,12,02,12,119,27,06,16,078,26,10,05,262,,12,82,341,40*76
$GPGSV,3,2,12,14,14,320,38,15,14,177,27,17,13,037,23,19,32,049,28*7B
$GPGSV,3,3,12,24,64,117,47,25,43,257,50,29,06,196,44,32,35,303,46*79
$GPGLL,4646.4659,N,00432.6185,E,071829.000,A,A*5D
$GPGGA,071830.000,4646.4659,N,00432.6187,E,1,04,3.9,273.5,M,47.1,M,,0000*5D
$GPGSA,A,3,29,14,32,12,,,,,,,,,4.7,3.9,2.5*30
$GPGSV,3,1,12,02,12,119,26,06,16,078,25,10,05,262,,12,82,341,40*74
$GPGSV,3,2,12,14,14,320,38,15,14,177,26,17,13,037,24,19,31,049,26*70
$GPGSV,3,3,12,24,64,117,47,25,43,257,50,29,06,196,44,32,35,303,47*78
$GPGLL,4646.4659,N,00432.6187,E,071830.000,A,A*57
$GPGGA,071831.000,4646.4673,N,00432.6232,E,1,07,1.0,269.7,M,47.1,M,,0000*58
$GPGSA,A,3,25,29,14,24,32,19,12,,,,,,1.7,1.0,1.3*32
$GPGSV,3,1,12,02,12,119,25,06,16,078,26,10,05,262,,12,82,341,40*74
$GPGSV,3,2,12,14,14,320,38,15,14,177,26,17,13,037,23,19,31,049,27*76
$GPGSV,3,3,12,24,64,117,47,25,43,257,50,29,06,196,45,32,35,303,47*79
$GPGLL,4646.4673,N,00432.6232,E,071831.000,A,A*53
$GPGGA,071832.000,4646.4675,N,00432.6241,E,1,07,1.0,269.0,M,47.1,M,,0000*5E
$GPGSA,A,3,25,29,14,24,32,19,12,,,,,,1.7,1.0,1.3*32
$GPGSV,3,1,12,02,12,119,23,06,16,078,27,10,05,262,,12,82,341,40*73
$GPGSV,3,2,12,14,14,320,38,15,14,177,26,17,13,037,24,19,31,049,26*70
$GPGSV,3,3,12,24,64,117,47,25,43,257,50,29,06,196,45,32,35,303,47*79
$GPGLL,4646.4675,N,00432.6241,E,071832.000,A,A*52
$GPGGA,071833.000,4646.4675,N,00432.6241,E,1,07,1.0,269.0,M,47.1,M,,0000*5F
$GPGSA,A,3,25,29,14,24,32,19,12,,,,,,1.7,1.0,1.3*32
$GPGSV,3,1,12,02,12,119,23,06,16,078,28,10,05,262,,12,82,341,40*7C
$GPGSV,3,2,12,14,14,320,39,15,14,177,27,17,13,037,23,19,31,049,26*77
$GPGSV,3,3,12,24,64,117,47,25,43,257,50,29,06,196,45,32,35,303,47*79
$GPGLL,4646.4675,N,00432.6241,E,071833.000,A,A*53
$GPGGA,071834.000,4646.4675,N,00432.6241,E,1,07,1.0,269.0,M,47.1,M,,0000*58
$GPGSA,A,3,25,29,14,24,32,19,12,,,,,,1.7,1.0,1.3*32
$GPGSV,3,1,12,02,12,119,25,06,16,078,28,10,05,262,,12,82,341,40*7A
$GPGSV,3,2,12,14,14,320,39,15,14,177,28,17,13,037,24,19,31,049,27*7E
$GPGSV,3,3,12,24,64,117,47,25,43,257,50,29,06,196,45,32,35,303,47*79
$GPGLL,4646.4675,N,00432.6241,E,071834.000,A,A*54
$GPGGA,071835.000,4646.4675,N,00432.6241,E,1,07,1.0,269.0,M,47.1,M,,0000*59
$GPGSA,A,3,25,29,14,24,32,19,12,,,,,,1.7,1.0,1.3*32
$GPGSV,3,1,12,02,12,119,25,06,16,078,28,10,05,262,,12,82,341,40*7A
$GPGSV,3,2,12,14,14,320,39,15,14,177,29,17,13,037,23,19,31,049,27*78
$GPGSV,3,3,12,24,64,117,47,25,43,257,50,29,06,196,45,32,35,303,47*79
$GPGLL,4646.4675,N,00432.6241,E,071835.000,A,A*55
$GPGGA,071836.000,4646.4675,N,00432.6241,E,1,07,1.0,269.0,M,47.1,M,,0000*5A
$GPGSA,A,3,25,29,14,24,32,19,12,,,,,,1.7,1.0,1.3*32
$GPGSV,3,1,12,02,12,119,24,06,16,078,29,10,05,262,,12,82,341,42*78
$GPGSV,3,2,12,14,14,320,41,15,14,177,30,17,13,037,23,19,31,049,29*71
$GPGSV,3,3,12,24,64,117,48,25,43,257,51,29,06,196,46,32,35,303,49*7A
$GPGLL,4646.4675,N,00432.6241,E,071836.000,A,A*56
$GPGGA,071837.000,4646.4675,N,00432.6241,E,1,07,1.0,269.0,M,47.1,M,,0000*5B
$GPGSA,A,3,25,29,14,24,32,19,12,,,,,,1.7,1.0,1.3*32
$GPGSV,3,1,12,02,12,119,23,06,16,078,28,10,05,262,,12,82,341,41*7D
$GPGSV,3,2,12,14,14,320,40,15,14,177,30,17,13,037,21,19,31,049,30*7A
$GPGSV,3,3,12,24,64,117,48,25,43,257,51,29,06,196,45,32,35,303,49*79
$GPGLL,4646.4675,N,00432.6241,E,071837.000,A,A*57
$GPGGA,071838.000,4646.4675,N,00432.6241,E,1,07,1.0,269.0,M,47.1,M,,0000*54
$GPGSA,A,3,25,29,14,24,32,19,12,,,,,,1.7,1.0,1.3*32
$GPGSV,3,1,12,02,12,119,22,06,16,078,27,10,05,262,,12,82,341,41*73
$GPGSV,3,2,12,14,14,320,39,15,14,177,30,17,13,037,18,19,31,049,30*7E
$GPGSV,3,3,12,24,64,117,47,25,43,257,50,29,06,196,44,32,35,303,48*77
$GPGLL,4646.4675,N,00432.6241,E,071838.000,A,A*58
$GPGGA,071839.000,4646.4675,N,00432.6241,E,1,07,1.0,269.0,M,47.1,M,,0000*55
$GPGSA,A,3,25,29,14,24,32,19,12,,,,,,1.7,1.0,1.3*32
$GPGSV,3,1,12,02,12,119,26,06,16,078,25,10,05,262,,12,82,341,40*74
$GPGSV,3,2,12,14,14,320,39,15,14,177,29,17,13,037,22,19,31,049,30*7F
$GPGSV,3,3,12,24,64,117,47,25,43,257,50,29,06,196,45,32,35,303,47*79
$GPGLL,4646.4675,N,00432.6241,E,071839.000,A,A*59
$GPGGA,071840.000,4646.4675,N,00432.6241,E,1,07,1.0,269.0,M,47.1,M,,0000*5B
$GPGSA,A,3,25,29,14,24,32,19,12,,,,,,1.7,1.0,1.3*32
$GPGSV,3,1,12,02,12,119,26,06,16,078,23,10,05,262,,12,82,341,40*72
$GPGSV,3,2,12,14,14,320,39,15,14,177,29,17,13,037,26,19,31,049,30*7B
$GPGSV,3,3,12,24,64,117,47,25,43,257,50,29,06,196,45,32,35,303,47*79
$GPGLL,4646.4675,N,00432.6241,E,071840.000,A,A*57
$GPGGA,071841.000,4646.4675,N,00432.6241,E,1,07,1.0,269.0,M,47.1,M,,0000*5A
$GPGSA,A,3,25,29,14,24,32,19,12,,,,,,1.7,1.0,1.3*32
$GPGSV,3,1,12,02,12,119,27,06,16,078,23,10,05,262,,12,82,341,40*73
$GPGSV,3,2,12,14,14,320,39,15,14,177,29,17,13,037,25,19,31,049,30*78
$GPGSV,3,3,12,24,64,117,47,25,43,257,50,29,06,196,44,32,35,303,47*78
$GPGLL,4646.4675,N,00432.6241,E,071841.000,A,A*56
$GPGGA,071842.000,4646.4675,N,00432.6241,E,1,07,1.0,269.0,M,47.1,M,,0000*59
$GPGSA,A,3,25,29,14,24,32,19,12,,,,,,1.7,1.0,1.3*32
$GPGSV,3,1,12,02,12,119,31,06,16,078,25,10,05,262,,12,82,341,40*72
$GPGSV,3,2,12,14,14,320,39,15,14,177,28,17,13,037,28,19,31,049,29*7C
$GPGSV,3,3,12,24,64,117,47,25,43,257,50,29,06,196,45,32,35,303,46*78
$GPGLL,4646.4675,N,00432.6241,E,071842.000,A,A*55
$GPGGA,071843.000,4646.4675,N,00432.6241,E,1,07,1.0,269.0,M,47.1,M,,0000*58
$GPGSA,A,3,25,29,14,24,32,19,12,,,,,,1.7,1.0,1.3*32
$GPGSV,3,1,12,02,12,119,31,06,16,078,25,10,05,262,,12,82,341,40*72
$GPGSV,3,2,12,14,14,320,39,15,14,177,29,17,13,037,27,19,31,049,34*7E
$GPGSV,3,3,12,24,64,117,47,25,43,257,50,29,06,196,44,32,35,303,46*79
$GPGLL,4646.4675,N,00432.6241,E,071843.000,A,A*54
$GPGGA,071844.000,4646.4675,N,00432.6241,E,1,07,1.0,269.0,M,47.1,M,,0000*5F
$GPGSA,A,3,25,29,14,24,32,19,12,,,,,,1.7,1.0,1.3*32
$GPGSV,3,1,12,02,12,119,32,06,16,078,25,10,05,262,,12,82,341,41*70
$GPGSV,3,2,12,14,14,320,39,15,14,177,30,17,13,037,27,19,31,049,31*73
$GPGSV,3,3,12,24,64,117,47,25,43,257,50,29,06,196,44,32,35,303,46*79
$GPGLL,4646.4675,N,00432.6241,E,071844.000,A,A*53
$GPGGA,071845.000,4646.4675,N,00432.6241,E,1,07,1.0,269.0,M,47.1,M,,0000*5E
$GPGSA,A,3,25,29,14,24,32,19,12,,,,,,1.7,1.0,1.3*32
$GPGSV,3,1,12,02,12,119,31,06,16,078,26,10,05,262,,12,82,341,39*7F
$GPGSV,3,2,12,14,14,320,39,15,14,177,28,17,13,037,27,19,31,049,31*7A
$GPGSV,3,3,12,24,64,117,47,25,43,257,50,29,06,196,44,32,35,303,46*79
$GPGLL,4646.4675,N,00432.6241,E,071845.000,A,A*52
$GPGGA,071846.000,4646.4675,N,00432.6241,E,1,07,1.0,269.0,M,47.1,M,,0000*5D
$GPGSA,A,3,25,29,14,24,32,19,12,,,,,,1.7,1.0,1.3*32
$GPGSV,3,1,12,02,12,119,32,06,16,078,26,10,05,262,,12,82,341,40*72
$GPGSV,3,2,12,14,14,320,39,15,14,177,28,17,13,037,28,19,31,049,28*7D
$GPGSV,3,3,12,24,64,117,47,25,43,257,50,29,06,196,44,32,35,303,46*79
$GPGLL,4646.4675,N,00432.6241,E,071846.000,A,A*51
$GPGGA,071847.000,4646.4675,N,00432.6241,E,1,07,1.0,269.0,M,47.1,M,,0000*5C
$GPGSA,A,3,25,29,14,24,32,19,12,,,,,,1.7,1.0,1.3*32
$GPGSV,3,1,12,02,12,119,32,06,16,078,26,10,05,262,,12,82,341,40*72
$GPGSV,3,2,12,14,14,320,40,15,14,177,28,17,13,037,28,19,31,049,28*73
$GPGSV,3,3,12,24,64,117,47,25,43,257,50,29,06,196,43,32,35,303,46*7E
$GPGLL,4646.4675,N,00432.6241,E,071847.000,A,A*50
$GPGGA,071848.000,4646.4675,N,00432.6241,E,1,07,1.0,269.0,M,47.1,M,,0000*53
$GPGSA,A,3,25,29,14,24,32,19,12,,,,,,1.7,1.0,1.3*32
$GPGSV,3,1,12,02,12,119,33,06,16,078,26,10,05,262,,12,82,343,40*71
$GPGSV,3,2,12,14,14,320,40,15,14,177,27,17,13,037,28,19,31,049,29*7D
$GPGSV,3,3,12,24,64,117,47,25,43,257,49,29,06,196,44,32,35,303,46*71
$GPGLL,4646.4675,N,00432.6241,E,071848.000,A,A*5F
$GPGGA,071849.000,4646.4675,N,00432.6241,E,1,07,1.0,269.0,M,47.1,M,,0000*52
$GPGSA,A,3,25,29,14,24,32,19,12,,,,,,1.7,1.0,1.3*32
$GPGSV,3,1,12,02,12,119,33,06,16,078,25,10,05,262,,12,82,343,40*72
$GPGSV,3,2,12,14,14,320,40,15,14,177,26,17,13,037,27,19,31,049,27*7D
$GPGSV,3,3,12,24,64,117,47,25,43,257,49,29,06,196,44,32,35,303,46*71
$GPGLL,4646.4675,N,00432.6241,E,071849.000,A,A*5E
$GPGGA,071850.000,4646.4675,N,00432.6241,E,1,07,1.0,269.0,M,47.1,M,,0000*5A
$GPGSA,A,3,25,29,14,24,32,19,12,,,,,,1.7,1.0,1.3*32
$GPGSV,3,1,12,02,12,119,33,06,16,078,27,10,05,262,,12,82,343,41*71
$GPGSV,3,2,12,14,14,320,40,15,14,177,27,17,13,037,25,19,31,049,27*7E
$GPGSV,3,3,12,24,64,117,47,25,43,257,49,29,06,196,44,32,35,303,47*70
$GPGLL,4646.4675,N,00432.6241,E,071850.000,A,A*56
$GPGGA,071851.000,4646.4675,N,00432.6241,E,1,07,1.0,269.0,M,47.1,M,,0000*5B
$GPGSA,A,3,25,29,14,24,32,19,12,,,,,,1.7,1.0,1.3*32
$GPGSV,3,1,12,02,12,119,33,06,16,078,27,10,05,262,,12,82,343,41*71
$GPGSV,3,2,12,14,14,320,40,15,14,177,28,17,13,037,23,19,31,049,27*77
$GPGSV,3,3,12,24,64,117,47,25,43,257,49,29,06,196,44,32,35,303,47*70
$GPGLL,4646.4675,N,00432.6241,E,071851.000,A,A*57
$GPGGA,071852.000,4646.4675,N,00432.6241,E,1,07,1.0,269.0,M,47.1,M,,0000*58
$GPGSA,A,3,25,29,14,24,32,19,12,,,,,,1.7,1.0,1.3*32
$GPGSV,3,1,12,02,12,119,32,06,16,078,27,10,05,262,,12,82,343,41*70
$GPGSV,3,2,12,14,14,320,40,15,14,177,29,17,13,037,20,19,31,049,27*75
$GPGSV,3,3,12,24,64,117,47,25,43,257,49,29,06,196,44,32,35,303,47*70
$GPGLL,4646.4675,N,00432.6241,E,071852.000,A,A*54
$GPGGA,071853.000,4646.4675,N,00432.6241,E,1,07,1.0,269.0,M,47.1,M,,0000*59
$GPGSA,A,3,25,29,14,24,32,19,12,,,,,,1.7,1.0,1.3*32
$GPGSV,3,1,12,02,12,119,31,06,16,078,27,10,05,262,,12,82,343,41*73
$GPGSV,3,2,12,14,14,320,41,15,14,177,29,17,12,037,22,19,31,049,27*77
$GPGSV,3,3,12,24,64,117,47,25,43,257,49,29,06,196,44,32,35,303,47*70
$GPGLL,4646.4675,N,00432.6241,E,071853.000,A,A*55
$GPGGA,071854.000,4646.4675,N,00432.6241,E,1,07,1.0,269.0,M,47.1,M,,0000*5E
$GPGSA,A,3,25,29,14,24,32,19,12,,,,,,1.7,1.0,1.3*32
$GPGSV,3,1,12,02,12,119,30,06,16,078,27,10,05,262,,12,82,343,41*72
$GPGSV,3,2,12,14,14,320,40,15,14,177,29,17,12,037,24,19,31,049,28*7F
$GPGSV,3,3,12,24,64,117,47,25,43,257,49,29,06,196,44,32,35,303,47*70
$GPGLL,4646.4675,N,00432.6241,E,071854.000,A,A*52
$GPGGA,071855.000,4646.4675,N,00432.6241,E,1,07,1.0,269.0,M,47.1,M,,0000*5F
$GPGSA,A,3,25,29,14,24,32,19,12,,,,,,1.7,1.0,1.3*32
$GPGSV,3,1,12,02,12,119,29,06,16,078,28,10,05,262,,12,82,343,41*75
$GPGSV,3,2,12,14,14,320,41,15,14,177,29,17,12,037,26,19,31,049,28*7C
$GPGSV,3,3,12,24,64,117,47,25,43,257,50,29,06,196,44,32,35,303,47*78
$GPGLL,4646.4675,N,00432.6241,E,071855.000,A,A*53
$GPGGA,071856.000,4646.4675,N,00432.6241,E,1,07,1.0,269.0,M,47.1,M,,0000*5C
$GPGSA,A,3,25,29,14,24,32,19,12,,,,,,1.7,1.0,1.3*32
$GPGSV,3,1,12,02,12,119,28,06,16,078,27,10,05,262,22,12,82,343,41*7B
$GPGSV,3,2,12,14,14,320,41,15,14,177,28,17,12,037,27,19,31,049,29*7D
$GPGSV,3,3,12,24,64,117,47,25,43,257,50,29,06,196,44,32,35,303,47*78
$GPGLL,4646.4675,N,00432.6241,E,071856.000,A,A*50
$GPGGA,071857.000,4646.4675,N,00432.6241,E,1,07,1.0,269.0,M,47.1,M,,0000*5D
$GPGSA,A,3,25,29,14,24,32,19,12,,,,,,1.7,1.0,1.3*32
$GPGSV,3,1,12,02,12,119,27,06,16,078,25,10,05,262,22,12,82,343,41*76
$GPGSV,3,2,12,14,14,320,41,15,14,177,28,17,12,037,26,19,31,049,30*74
$GPGSV,3,3,12,24,64,117,47,25,43,257,50,29,06,196,44,32,35,303,47*78
$GPGLL,4646.4675,N,00432.6241,E,071857.000,A,A*51
$GPGGA,071858.000,4646.4675,N,00432.6241,E,1,07,1.0,269.0,M,47.1,M,,0000*52
$GPGSA,A,3,25,29,14,24,32,19,12,,,,,,1.7,1.0,1.3*32
$GPGSV,3,1,12,02,12,119,27,06,16,078,22,10,05,262,21,12,82,343,41*72
$GPGSV,3,2,12,14,14,320,40,15,14,177,28,17,12,037,26,19,31,049,30*75
$GPGSV,3,3,12,24,64,117,47,25,43,257,50,29,06,196,44,32,35,303,47*78
$GPGLL,4646.4675,N,00432.6241,E,071858.000,A,A*5E
$GPGGA,071859.000,4646.4675,N,00432.6241,E,1,07,1.0,269.0,M,47.1,M,,0000*53
$GPGSA,A,3,25,29,14,24,32,19,12,,,,,,1.7,1.0,1.3*32
$GPGSV,3,1,12,02,12,119,27,06,16,078,23,10,05,262,21,12,82,343,40*72
$GPGSV,3,2,12,14,14,320,40,15,14,177,27,17,12,037,28,19,31,049,31*75
$GPGSV,3,3,12,24,64,117,47,25,43,257,50,29,06,196,44,32,35,303,46*79
$GPGLL,4646.4675,N,00432.6241,E,071859.000,A,A*5F
$GPGGA,071900.000,4646.4675,N,00432.6241,E,1,07,1.0,269.0,M,47.1,M,,0000*5E
$GPGSA,A,3,25,29,14,24,32,19,12,,,,,,1.7,1.0,1.3*32
$GPGSV,3,1,12,02,12,118,29,06,16,078,27,10,05,262,20,12,82,343,40*78
$GPGSV,3,2,12,14,14,320,40,15,14,177,27,17,12,037,29,19,31,049,29*7D
$GPGSV,3,3,12,24,64,117,47,25,43,257,50,29,06,196,45,32,35,303,46*78
$GPGLL,4646.4675,N,00432.6241,E,071900.000,A,A*52
$GPGGA,071901.000,4646.4675,N,00432.6241,E,1,08,0.9,269.0,M,47.1,M,,0000*58
$GPGSA,A,3,25,29,14,02,24,32,19,12,,,,,1.5,0.9,1.2*3B
$GPGSV,3,1,12,02,12,118,28,06,16,078,29,10,05,262,19,12,82,343,40*7D
$GPGSV,3,2,12,14,14,320,40,15,14,177,28,17,12,037,29,19,31,049,28*73
$GPGSV,3,3,12,24,64,117,47,25,43,257,50,29,06,196,45,32,35,303,46*78
$GPGLL,4646.4675,N,00432.6241,E,071901.000,A,A*53
$GPGGA,071902.000,4646.4675,N,00432.6241,E,1,08,0.9,269.0,M,47.1,M,,0000*5B
$GPGSA,A,3,25,29,14,02,24,32,19,12,,,,,1.5,0.9,1.2*3B
$GPGSV,3,1,12,02,12,118,30,06,16,078,29,10,05,262,21,12,82,343,39*71
$GPGSV,3,2,12,14,14,320,40,15,14,177,29,17,12,037,30,19,31,049,29*7B
$GPGSV,3,3,12,24,64,117,47,25,43,257,50,29,06,196,45,32,35,303,46*78
$GPGLL,4646.4675,N,00432.6241,E,071902.000,A,A*50
$GPTXT,01,01,02,u-blox ag - www.u-blox.com*50
$GPTXT,01,01,02,HW  UBX-G50xx  00040005 *53
$GPTXT,01,01,02,EXT CORE 6.02 (36023) Oct 15 2009 16:52:22*47
$GPTXT,01,01,02,ROM BASE 5.00 (28483) Jun  6 2008 14:45:11*4E
$GPTXT,01,01,02,MOD LEA-5H-0*2E
$GPTXT,01,01,02,ANTSUPERV=AC SD PDoS SR*20
$GPTXT,01,01,02,ANTSTATUS=OK*3B
$GPGGA,083811.000,4647.3428,N,00433.4505,E,1,09,1.0,258.9,M,47.1,M,,0000*5F
$GPGSA,A,3,25,29,14,02,06,24,31,32,12,,,,2.4,1.0,2.1*3D
$GPGSV,3,1,10,02,32,088,35,06,18,044,26,12,52,065,41,14,34,294,35*7D
$GPGSV,3,2,10,19,02,040,,24,30,139,42,25,73,307,44,29,42,202,39*7F
$GPGSV,3,3,10,31,24,307,35,32,38,259,32*7B
$GPGLL,4647.3428,N,00433.4505,E,083811.000,A,A*56
$GPGGA,083812.000,4647.3435,N,00433.4507,E,1,09,0.9,261.0,M,47.1,M,,0000*59
$GPGSA,A,3,25,29,14,02,06,24,31,32,12,,,,2.0,0.9,1.8*3B
$GPGSV,3,1,10,02,32,088,41,06,18,044,26,12,52,065,43,14,34,294,31*78
$GPGSV,3,2,10,19,01,040,,24,30,139,32,25,73,307,45,29,42,202,40*74
$GPGSV,3,3,10,31,24,307,37,32,38,259,29*73
$GPGLL,4647.3435,N,00433.4507,E,083812.000,A,A*5B
$GPGGA,083813.000,4647.3445,N,00433.4509,E,1,09,0.9,262.6,M,47.1,M,,0000*54
$GPGSA,A,3,25,29,14,02,06,24,31,32,12,,,,2.0,0.9,1.8*3B
$GPGSV,3,1,10,02,32,088,29,06,18,044,25,12,52,065,34,14,34,294,36*72
$GPGSV,3,2,10,19,01,040,,24,30,139,38,25,73,307,43,29,42,202,44*7C
$GPGSV,3,3,10,31,24,307,31,32,38,259,36*7B
$GPGLL,4647.3445,N,00433.4509,E,083813.000,A,A*53
$GPGGA,083814.000,4647.3455,N,00433.4512,E,1,09,0.9,264.1,M,47.1,M,,0000*59
$GPGSA,A,3,25,29,14,02,06,24,31,32,12,,,,2.0,0.9,1.8*3B
$GPGSV,3,1,10,02,32,088,33,06,18,044,27,12,52,065,43,14,34,294,34*79
$GPGSV,3,2,10,19,01,040,,24,30,139,35,25,73,307,44,29,42,202,44*76
$GPGSV,3,3,10,31,24,307,32,32,38,259,40*79
$GPGLL,4647.3455,N,00433.4512,E,083814.000,A,A*5F
$GPGGA,083815.000,4647.3464,N,00433.4510,E,1,09,0.9,265.2,M,47.1,M,,0000*5A
$GPGSA,A,3,25,29,14,02,06,24,31,32,12,,,,2.0,0.9,1.8*3B
$GPGSV,3,1,10,02,32,088,31,06,18,044,26,12,52,065,36,14,34,294,32*7E
$GPGSV,3,2,10,19,01,040,,24,30,139,38,25,73,307,45,29,42,202,43*7D
$GPGSV,3,3,10,31,24,307,34,32,38,259,40*7F
$GPGLL,4647.3464,N,00433.4510,E,083815.000,A,A*5E
$GPGGA,083816.000,4647.3473,N,00433.4504,E,1,09,0.9,264.1,M,47.1,M,,0000*58
$GPGSA,A,3,25,29,14,02,06,24,31,32,12,,,,2.0,0.9,1.8*3B
$GPGSV,3,1,10,02,32,088,33,06,18,044,25,12,52,065,39,14,34,294,35*77
$GPGSV,3,2,10,19,01,040,,24,30,139,33,25,73,307,44,29,42,202,42*76
$GPGSV,3,3,10,31,24,307,30,32,38,259,40*7B
$GPGLL,4647.3473,N,00433.4504,E,083816.000,A,A*5E
$GPGGA,083817.000,4647.3483,N,00433.4496,E,1,09,0.9,264.2,M,47.1,M,,0000*5F
$GPGSA,A,3,25,29,14,02,06,24,31,32,12,,,,2.0,0.9,1.8*3B
$GPGSV,3,1,10,02,32,088,29,06,18,044,25,12,52,065,47,14,34,294,31*71
$GPGSV,3,2,10,19,01,040,,24,29,140,41,25,73,307,45,29,42,202,43*75
$GPGSV,3,3,10,31,24,307,31,32,38,259,40*7A
$GPGLL,4647.3483,N,00433.4496,E,083817.000,A,A*5A
$GPGGA,083818.000,4647.3492,N,00433.4492,E,1,09,0.9,264.3,M,47.1,M,,0000*55
$GPGSA,A,3,25,29,14,02,06,24,31,32,12,,,,2.0,0.9,1.8*3B
$GPGSV,3,1,10,02,32,088,31,06,18,044,25,12,52,065,36,14,34,294,32*7D
$GPGSV,3,2,10,19,01,040,,24,29,140,41,25,73,308,45,29,42,202,42*7B
$GPGSV,3,3,10,31,24,307,31,32,38,259,42*78
$GPGLL,4647.3492,N,00433.4492,E,083818.000,A,A*51
$GPGGA,083819.000,4647.3502,N,00433.4487,E,1,09,0.9,264.7,M,47.1,M,,0000*5C
$GPGSA,A,3,25,29,14,02,06,24,31,32,12,,,,2.0,0.9,1.8*3B
$GPGSV,3,1,10,02,32,088,34,06,18,044,25,12,52,065,38,14,34,294,34*70
$GPGSV,3,2,10,19,01,040,,24,29,140,39,25,73,308,43,29,42,202,43*73
$GPGSV,3,3,10,31,24,307,34,32,38,259,44*7B
$GPGLL,4647.3502,N,00433.4487,E,083819.000,A,A*5C
$GPGGA,083820.000,4647.3511,N,00433.4486,E,1,09,0.9,265.1,M,47.1,M,,0000*52
$GPGSA,A,3,25,29,14,02,06,24,31,32,12,,,,2.0,0.9,1.8*3B
$GPGSV,3,1,10,02,32,088,29,06,18,044,25,12,52,065,41,14,34,294,33*75
$GPGSV,3,2,10,19,01,040,,24,29,140,32,25,73,308,44,29,42,202,41*7D
$GPGSV,3,3,10,31,24,307,34,32,38,259,41*7E
$GPGLL,4647.3511,N,00433.4486,E,083820.000,A,A*55
$GPGGA,083821.000,4647.3519,N,00433.4486,E,1,09,0.9,265.8,M,47.1,M,,0000*52
$GPGSA,A,3,25,29,14,02,06,24,31,32,12,,,,2.0,0.9,1.8*3B
$GPGSV,3,1,10,02,32,088,39,06,18,044,25,12,52,065,44,14,34,294,32*70
$GPGSV,3,2,10,19,01,040,,24,29,140,38,25,73,308,42,29,42,202,42*72
$GPGSV,3,3,10,31,24,307,39,32,38,259,41*73
$GPGLL,4647.3519,N,00433.4486,E,083821.000,A,A*5C
$GPGGA,083822.000,4647.3527,N,00433.4479,E,1,09,0.9,265.7,M,47.1,M,,0000*53
$GPGSA,A,3,25,29,14,02,06,24,31,32,12,,,,2.0,0.9,1.8*3B
$GPGSV,3,1,10,02,32,088,29,06,18,044,24,12,52,065,42,14,34,294,35*71
$GPGSV,3,2,10,19,01,040,,24,29,140,40,25,73,308,42,29,43,202,43*7D
$GPGSV,3,3,10,31,24,307,30,32,38,259,40*7B
$GPGLL,4647.3527,N,00433.4479,E,083822.000,A,A*52
$GPGGA,083823.000,4647.3537,N,00433.4473,E,1,09,0.9,266.3,M,47.1,M,,0000*5E
$GPGSA,A,3,25,29,14,02,06,24,31,32,12,,,,2.0,0.9,1.8*3B
$GPGSV,3,1,10,02,32,088,29,06,18,044,23,12,52,065,45,14,34,294,34*70
$GPGSV,3,2,10,19,01,040,,24,29,140,40,25,73,308,44,29,43,202,41*79
$GPGSV,3,3,10,31,24,307,34,32,38,259,41*7E
$GPGLL,4647.3537,N,00433.4473,E,083823.000,A,A*58
$GPGGA,083824.000,4647.3547,N,00433.4470,E,1,09,0.9,266.1,M,47.1,M,,0000*5F
$GPGSA,A,3,25,29,14,02,06,24,31,32,12,,,,2.0,0.9,1.8*3B
$GPGSV,3,1,10,02,32,088,33,06,18,044,23,12,52,065,43,14,34,294,34*7D
$GPGSV,3,2,10,19,01,040,,24,29,140,35,25,73,308,44,29,43,202,42*78
$GPGSV,3,3,10,31,24,307,31,32,38,259,39*74
$GPGLL,4647.3547,N,00433.4470,E,083824.000,A,A*5B
$GPGGA,083825.000,4647.3554,N,00433.4463,E,1,09,0.9,266.2,M,47.1,M,,0000*5D
$GPGSA,A,3,25,29,14,02,06,24,31,32,12,,,,2.0,0.9,1.8*3B
$GPGSV,3,1,10,02,32,088,31,06,18,044,23,12,52,065,43,14,34,294,34*7F
$GPGSV,3,2,10,19,01,040,,24,29,140,36,25,73,308,44,29,43,202,43*7A
$GPGSV,3,3,10,31,24,307,33,32,38,259,42*7A
$GPGLL,4647.3554,N,00433.4463,E,083825.000,A,A*5A
$GPGGA,083826.000,4647.3563,N,00433.4464,E,1,09,0.9,266.7,M,47.1,M,,0000*58
$GPGSA,A,3,25,29,14,02,06,24,31,32,12,,,,2.0,0.9,1.8*3B
$GPGSV,3,1,10,02,32,088,38,06,18,044,22,12,52,065,42,14,34,294,34*76
$GPGSV,3,2,10,19,01,040,,24,29,140,35,25,73,308,43,29,43,202,42*7F
$GPGSV,3,3,10,31,24,307,36,32,38,259,43*7E
$GPGLL,4647.3563,N,00433.4464,E,083826.000,A,A*5A
$GPGGA,083827.000,4647.3571,N,00433.4462,E,1,09,0.9,267.0,M,47.1,M,,0000*5A
$GPGSA,A,3,25,29,14,02,06,24,31,32,12,,,,2.0,0.9,1.8*3B
$GPGSV,3,1,10,02,32,088,37,06,18,044,22,12,52,065,39,14,34,294,34*75
$GPGSV,3,2,10,19,01,040,,24,29,140,39,25,73,308,43,29,43,202,40*71
$GPGSV,3,3,10,31,24,307,34,32,38,259,43*7C
$GPGLL,4647.3571,N,00433.4462,E,083827.000,A,A*5E
$GPGGA,083828.000,4647.3579,N,00433.4460,E,1,09,0.9,267.3,M,47.1,M,,0000*5C
$GPGSA,A,3,25,29,14,02,06,24,31,32,12,,,,2.0,0.9,1.8*3B
$GPGSV,3,1,10,02,32,088,34,06,18,044,22,12,52,065,40,14,34,294,32*7E
$GPGSV,3,2,10,19,01,040,,24,29,140,34,25,73,308,43,29,43,202,42*7E
$GPGSV,3,3,10,31,24,307,30,32,38,259,37*7B
$GPGLL,4647.3579,N,00433.4460,E,083828.000,A,A*5B
$GPGGA,083829.000,4647.3589,N,00433.4457,E,1,09,0.9,267.3,M,47.1,M,,0000*56
$GPGSA,A,3,25,29,14,02,06,24,31,32,12,,,,2.0,0.9,1.8*3B
$GPGSV,3,1,10,02,32,088,33,06,18,044,21,12,52,065,42,14,34,294,34*7E
$GPGSV,3,2,10,19,01,040,,24,29,140,37,25,73,308,43,29,43,202,40*7F
$GPGSV,3,3,10,31,24,307,25,32,38,259,40*7F
$GPGLL,4647.3589,N,00433.4457,E,083829.000,A,A*51
$GPGGA,083830.000,4647.3597,N,00433.4456,E,1,09,0.9,267.5,M,47.1,M,,0000*56
$GPGSA,A,3,25,29,14,02,06,24,31,32,12,,,,2.0,0.9,1.8*3B
$GPGSV,3,1,10,02,32,088,38,06,18,044,22,12,52,065,43,14,34,294,32*71
$GPGSV,3,2,10,19,01,040,,24,29,140,37,25,73,308,44,29,43,202,43*7B
$GPGSV,3,3,10,31,24,307,33,32,38,259,42*7A
$GPGLL,4647.3597,N,00433.4456,E,083830.000,A,A*57
$GPGGA,083831.000,4647.3608,N,00433.4453,E,1,09,0.9,267.4,M,47.1,M,,0000*56
$GPGSA,A,3,25,29,14,02,06,24,31,32,12,,,,2.0,0.9,1.8*3B
$GPGSV,3,1,10,02,32,088,35,06,18,044,23,12,52,065,41,14,34,294,32*7F
$GPGSV,3,2,10,19,01,040,,24,29,140,34,25,73,308,44,29,43,202,42*79
$GPGSV,3,3,10,31,24,307,35,32,38,259,39*70
$GPGLL,4647.3608,N,00433.4453,E,083831.000,A,A*56
$GPGGA,083832.000,4647.3615,N,00433.4451,E,1,09,0.9,267.8,M,47.1,M,,0000*57
$GPGSA,A,3,25,29,14,02,06,24,31,32,12,,,,2.0,0.9,1.8*3B
$GPGSV,3,1,10,02,32,088,39,06,18,044,23,12,52,065,40,14,34,294,32*72
$GPGSV,3,2,10,19,01,040,,24,29,140,35,25,73,308,44,29,43,202,36*7B
$GPGSV,3,3,10,31,24,307,35,32,38,259,43*7D
$GPGLL,4647.3615,N,00433.4451,E,083832.000,A,A*5B
$GPGGA,083833.000,4647.3622,N,00433.4449,E,1,09,0.9,268.1,M,47.1,M,,0000*5D
$GPGSA,A,3,25,29,14,02,06,24,31,32,12,,,,2.0,0.9,1.8*3B
$GPGSV,3,1,10,02,32,088,37,06,18,044,23,12,52,065,38,14,34,294,31*70
$GPGSV,3,2,10,19,01,040,,24,29,140,36,25,73,308,45,29,43,202,37*78
$GPGSV,3,3,10,31,24,307,34,32,38,259,44*7B
$GPGLL,4647.3622,N,00433.4449,E,083833.000,A,A*57
$GPGGA,083834.000,4647.3629,N,00433.4447,E,1,09,0.9,268.6,M,47.1,M,,0000*58
$GPGSA,A,3,25,29,14,02,06,24,31,32,12,,,,2.0,0.9,1.8*3B
$GPGSV,3,1,10,02,32,088,33,06,18,044,23,12,52,065,45,14,34,294,29*77
$GPGSV,3,2,10,19,01,040,,24,29,140,36,25,73,308,45,29,43,202,35*7A
$GPGSV,3,3,10,31,24,307,30,32,38,259,44*7F
$GPGLL,4647.3629,N,00433.4447,E,083834.000,A,A*55
$GPGGA,083835.000,4647.3632,N,00433.4445,E,1,09,0.9,269.5,M,47.1,M,,0000*53
$GPGSA,A,3,25,29,14,02,06,24,31,32,12,,,,2.0,0.9,1.8*3B
$GPGSV,3,1,10,02,32,088,35,06,18,044,22,12,52,065,39,14,34,294,29*7B
$GPGSV,3,2,10,19,01,040,,24,29,140,36,25,73,308,45,29,43,202,41*79
$GPGSV,3,3,10,31,24,307,29,32,38,259,42*71
$GPGLL,4647.3632,N,00433.4445,E,083835.000,A,A*5C
$GPGGA,083836.000,4647.3633,N,00433.4444,E,1,09,0.9,270.6,M,47.1,M,,0000*5B
$GPGSA,A,3,25,29,14,02,06,24,31,32,12,,,,2.0,0.9,1.8*3B
$GPGSV,3,1,10,02,32,088,31,06,18,044,22,12,52,065,42,14,34,294,28*72
$GPGSV,3,2,10,19,01,040,,24,29,140,29,25,73,308,44,29,43,202,39*79
$GPGSV,3,3,10,31,24,307,34,32,38,259,43*7C
$GPGLL,4647.3633,N,00433.4444,E,083836.000,A,A*5F
$GPGGA,083837.000,4647.3632,N,00433.4444,E,1,09,0.9,272.1,M,47.1,M,,0000*5E
$GPGSA,A,3,25,29,14,02,06,24,31,32,12,,,,2.0,0.9,1.8*3B
$GPGSV,3,1,10,02,32,088,31,06,18,044,23,12,52,065,36,14,34,294,32*7B
$GPGSV,3,2,10,19,01,040,,24,29,140,33,25,73,308,45,29,43,202,39*73
$GPGSV,3,3,10,31,24,307,36,32,38,259,43*7E
$GPGLL,4647.3632,N,00433.4444,E,083837.000,A,A*5F
$GPGGA,083838.000,4647.3639,N,00433.4441,E,1,09,0.9,272.8,M,47.1,M,,0000*56
$GPGSA,A,3,25,29,14,02,06,24,31,32,12,,,,2.0,0.9,1.8*3B
$GPGSV,3,1,10,02,32,088,27,06,18,044,22,12,52,065,46,14,34,294,26*7F
$GPGSV,3,2,10,19,01,040,,24,29,140,34,25,73,308,44,29,43,202,39*75
$GPGSV,3,3,10,31,24,307,28,32,38,259,44*76
$GPGLL,4647.3639,N,00433.4441,E,083838.000,A,A*5E
$GPGGA,083839.000,4647.3642,N,00433.4440,E,1,09,0.9,273.9,M,47.1,M,,0000*5A
$GPGSA,A,3,25,29,14,02,06,24,31,32,12,,,,2.0,0.9,1.8*3B
$GPGSV,3,1,10,02,32,088,36,06,18,044,22,12,52,065,41,14,34,294,32*7D
$GPGSV,3,2,10,19,01,040,,24,29,140,34,25,73,308,43,29,43,202,41*7D
$GPGSV,3,3,10,31,24,307,31,32,38,259,41*7B
$GPGLL,4647.3642,N,00433.4440,E,083839.000,A,A*52
$GPGGA,083840.000,4647.3653,N,00433.4439,E,1,09,0.9,272.1,M,47.1,M,,0000*53
$GPGSA,A,3,25,29,14,02,06,24,31,32,12,,,,2.0,0.9,1.8*3B
$GPGSV,3,1,10,02,32,088,40,06,18,044,21,12,52,065,43,14,34,294,31*7E
$GPGSV,3,2,10,19,01,040,,24,29,140,34,25,73,308,45,29,43,202,37*7A
$GPGSV,3,3,10,31,24,307,32,32,38,259,38*76
$GPGLL,4647.3653,N,00433.4439,E,083840.000,A,A*52
$GPGGA,083841.000,4647.3660,N,00433.4436,E,1,09,0.9,272.3,M,47.1,M,,0000*5F
$GPGSA,A,3,25,29,14,02,06,24,31,32,12,,,,2.0,0.9,1.8*3B
$GPGSV,3,1,10,02,32,088,29,06,18,044,20,12,52,065,42,14,34,294,28*79
$GPGSV,3,2,10,19,01,040,,24,29,140,34,25,73,308,43,29,43,202,41*7D
$GPGSV,3,3,10,31,24,307,27,32,38,259,38*72
$GPGLL,4647.3660,N,00433.4436,E,083841.000,A,A*5C
$GPGGA,083842.000,4647.3669,N,00433.4436,E,1,09,0.9,272.3,M,47.1,M,,0000*55
$GPGSA,A,3,25,29,14,02,06,24,31,32,12,,,,2.0,0.9,1.8*3B
$GPGSV,3,1,10,02,32,088,38,06,18,044,23,12,52,065,44,14,34,294,28*7C
$GPGSV,3,2,10,19,01,040,,24,29,140,30,25,73,308,43,29,43,202,44*7C
$GPGSV,3,3,10,31,24,307,27,32,38,259,38*72
$GPGLL,4647.3669,N,00433.4436,E,083842.000,A,A*56
$GPGGA,083843.000,4647.3672,N,00433.4435,E,1,09,0.9,272.8,M,47.1,M,,0000*56
$GPGSA,A,3,25,29,14,02,06,24,31,32,12,,,,2.0,0.9,1.8*3B
$GPGSV,3,1,10,02,32,088,39,06,18,044,25,12,52,065,43,14,34,294,27*73
$GPGSV,3,2,10,19,01,040,,24,29,140,29,25,73,308,44,29,43,202,42*75
$GPGSV,3,3,10,31,24,307,32,32,38,259,37*79
$GPGLL,4647.3672,N,00433.4435,E,083843.000,A,A*5E
$GPGGA,083844.000,4647.3677,N,00433.4435,E,1,09,0.9,272.9,M,47.1,M,,0000*55
$GPGSA,A,3,25,29,14,02,06,24,31,32,12,,,,2.0,0.9,1.8*3B
$GPGSV,3,1,10,02,32,088,42,06,18,044,25,12,52,065,38,14,34,294,28*7C
$GPGSV,3,2,10,19,01,040,,24,29,140,24,25,73,308,44,29,43,202,40*7A
$GPGSV,3,3,10,31,24,307,31,32,38,259,42*78
$GPGLL,4647.3677,N,00433.4435,E,083844.000,A,A*5C
$GPGGA,083845.000,4647.3687,N,00433.4435,E,1,09,0.9,272.8,M,47.1,M,,0000*5A
$GPGSA,A,3,25,29,14,02,06,24,31,32,12,,,,2.0,0.9,1.8*3B
$GPGSV,3,1,10,02,32,088,37,06,18,044,23,12,52,065,45,14,34,294,28*72
$GPGSV,3,2,10,19,01,040,,24,29,140,30,25,73,308,45,29,43,202,44*7A
$GPGSV,3,3,10,31,24,307,31,32,38,259,42*78
$GPGLL,4647.3687,N,00433.4435,E,083845.000,A,A*52
$GPGGA,083846.000,4647.3701,N,00433.4433,E,1,09,0.9,272.8,M,47.1,M,,0000*50
$GPGSA,A,3,25,29,14,02,06,24,31,32,12,,,,2.0,0.9,1.8*3B
$GPGSV,3,1,10,02,32,088,39,06,18,044,21,12,52,065,44,14,34,294,28*7F
$GPGSV,3,2,10,19,01,040,,24,29,140,38,25,73,308,45,29,43,202,44*72
$GPGSV,3,3,10,31,24,307,33,32,38,259,42*7A
$GPGLL,4647.3701,N,00433.4433,E,083846.000,A,A*58
$GPGGA,083847.000,4647.3713,N,00433.4432,E,1,09,0.9,272.5,M,47.1,M,,0000*5E
$GPGSA,A,3,25,29,14,02,06,24,31,32,12,,,,2.0,0.9,1.8*3B
$GPGSV,3,1,10,02,32,088,40,06,18,044,22,12,52,065,44,14,34,294,27*7D
$GPGSV,3,2,10,19,01,040,,24,29,140,36,25,73,308,44,29,43,202,46*7F
$GPGSV,3,3,10,31,24,307,28,32,38,259,42*70
$GPGLL,4647.3713,N,00433.4432,E,083847.000,A,A*5B
$GPGGA,083848.000,4647.3726,N,00433.4431,E,1,09,0.9,272.0,M,47.1,M,,0000*51
$GPGSA,A,3,25,29,14,02,06,24,31,32,12,,,,2.0,0.9,1.8*3B
$GPGSV,3,1,10,02,32,088,38,06,18,044,22,12,52,065,45,14,34,294,27*73
$GPGSV,3,2,10,19,01,040,,24,29,140,36,25,73,308,46,29,43,202,46*7D
$GPGSV,3,3,10,31,24,307,28,32,38,259,42*70
$GPGLL,4647.3726,N,00433.4431,E,083848.000,A,A*51
$GPGGA,083849.000,4647.3738,N,00433.4430,E,1,09,0.9,271.8,M,47.1,M,,0000*55
$GPGSA,A,3,25,29,14,02,06,24,31,32,12,,,,2.0,0.9,1.8*3B
$GPGSV,3,1,10,02,32,088,37,06,18,044,23,12,52,065,44,14,34,294,31*7B
$GPGSV,3,2,10,19,01,040,,24,29,140,41,25,73,308,45,29,43,202,45*7D
$GPGSV,3,3,10,31,24,307,28,32,38,259,43*71
$GPGLL,4647.3738,N,00433.4430,E,083849.000,A,A*5E
$GPGGA,083850.000,4647.3749,N,00433.4430,E,1,09,0.9,271.7,M,47.1,M,,0000*54
$GPGSA,A,3,25,29,14,02,06,24,31,32,12,,,,2.0,0.9,1.8*3B
$GPGSV,3,1,10,02,32,088,36,06,18,044,23,12,52,065,45,14,34,294,26*7D
$GPGSV,3,2,10,19,01,040,,24,29,140,42,25,73,308,45,29,43,202,45*7E
$GPGSV,3,3,10,31,24,307,28,32,38,259,43*71
$GPGLL,4647.3749,N,00433.4430,E,083850.000,A,A*50
$GPGGA,083851.000,4647.3759,N,00433.4430,E,1,09,0.9,271.7,M,47.1,M,,0000*54
$GPGSA,A,3,25,29,14,02,06,24,31,32,12,,,,2.0,0.9,1.8*3B
$GPGSV,3,1,10,02,32,088,30,06,18,044,22,12,52,065,43,14,34,294,27*7D
$GPGSV,3,2,10,19,01,040,,24,29,140,42,25,73,308,46,29,43,202,45*7D
$GPGSV,3,3,10,31,24,307,32,32,38,259,45*7C
$GPGLL,4647.3759,N,00433.4430,E,083851.000,A,A*50
$GPGGA,083852.000,4647.3770,N,00433.4434,E,1,08,1.0,270.8,M,47.1,M,,0000*5F
$GPGSA,A,3,25,29,14,02,24,31,32,12,,,,,2.4,1.0,2.1*3B
$GPGSV,3,1,10,02,32,088,40,06,18,044,,12,52,065,45,14,34,294,28*73
$GPGSV,3,2,10,19,01,040,,24,29,140,45,25,73,308,45,29,43,202,46*7A
$GPGSV,3,3,10,31,24,307,27,32,38,259,44*79
$GPGLL,4647.3770,N,00433.4434,E,083852.000,A,A*5C
$GPGGA,083853.000,4647.3781,N,00433.4435,E,1,08,1.0,270.5,M,47.1,M,,0000*5C
$GPGSA,A,3,25,29,14,02,24,31,32,12,,,,,2.4,1.0,2.1*3B
$GPGSV,3,1,10,02,32,088,34,06,18,044,,12,52,065,43,14,34,294,27*79
$GPGSV,3,2,10,19,01,040,,24,29,140,40,25,73,308,46,29,43,202,46*7C
$GPGSV,3,3,10,31,24,307,27,32,38,259,44*79
$GPGLL,4647.3781,N,00433.4435,E,083853.000,A,A*52
$GPGGA,083854.000,4647.3792,N,00433.4436,E,1,08,1.0,270.5,M,47.1,M,,0000*5A
$GPGSA,A,3,25,29,14,02,24,31,32,12,,,,,2.4,1.0,2.1*3B
$GPGSV,3,1,10,02,32,088,32,06,18,044,,12,52,065,46,14,34,294,27*7A
$GPGSV,3,2,10,19,01,040,,24,29,140,43,25,73,308,46,29,43,202,46*7F
$GPGSV,3,3,10,31,24,307,33,32,38,259,46*7E
$GPGLL,4647.3792,N,00433.4436,E,083854.000,A,A*54
$GPGGA,083855.000,4647.3804,N,00433.4434,E,1,08,1.0,270.4,M,47.1,M,,0000*58
$GPGSA,A,3,25,29,14,02,24,31,32,12,,,,,2.4,1.0,2.1*3B
$GPGSV,3,1,10,02,32,088,29,06,18,044,,12,52,065,45,14,34,294,27*73
$GPGSV,3,2,10,19,01,040,,24,29,140,40,25,73,308,45,29,43,202,47*7E
$GPGSV,3,3,10,31,24,307,29,32,38,259,44*77
$GPGLL,4647.3804,N,00433.4434,E,083855.000,A,A*57
$GPGGA,083856.000,4647.3815,N,00433.4433,E,1,08,1.0,270.3,M,47.1,M,,0000*5B
$GPGSA,A,3,25,29,14,02,24,31,32,12,,,,,2.4,1.0,2.1*3B
$GPGSV,3,1,10,02,32,088,28,06,18,044,,12,52,065,46,14,34,294,27*71
$GPGSV,3,2,10,19,01,040,,24,29,140,42,25,73,308,45,29,43,202,47*7C
$GPGSV,3,3,10,31,24,307,29,32,38,259,45*76
$GPGLL,4647.3815,N,00433.4433,E,083856.000,A,A*53
$GPGGA,083857.000,4647.3827,N,00433.4432,E,1,08,1.0,270.0,M,47.1,M,,0000*59
$GPGSA,A,3,25,29,14,02,24,31,32,12,,,,,2.4,1.0,2.1*3B
$GPGSV,3,1,10,02,32,088,34,06,18,044,,12,52,065,41,14,34,294,27*7B
$GPGSV,3,2,10,19,01,040,,24,29,140,44,25,73,308,45,29,43,202,48*75
$GPGSV,3,3,10,31,24,307,32,32,38,259,43*7A
$GPGLL,4647.3827,N,00433.4432,E,083857.000,A,A*52
$GPGGA,083858.000,4647.3839,N,00433.4431,E,1,08,1.0,269.7,M,47.1,M,,0000*55
$GPGSA,A,3,25,29,14,02,24,31,32,12,,,,,2.4,1.0,2.1*3B
$GPGSV,3,1,10,02,32,088,29,06,18,044,,12,52,065,43,14,34,294,28*7A
$GPGSV,3,2,10,19,01,040,,24,29,140,45,25,73,308,46,29,43,202,48*77
$GPGSV,3,3,10,31,24,307,27,32,38,259,40*7D
$GPGLL,4647.3839,N,00433.4431,E,083858.000,A,A*51
$GPGGA,083859.000,4647.3851,N,00433.4430,E,1,08,1.0,269.4,M,47.1,M,,0000*58
$GPGSA,A,3,25,29,14,02,24,31,32,12,,,,,2.4,1.0,2.1*3B
$GPGSV,3,1,10,02,32,088,35,06,18,044,,12,52,065,46,14,34,294,28*72
$GPGSV,3,2,10,19,01,040,,24,29,140,42,25,73,308,46,29,43,202,48*70
$GPGSV,3,3,10,31,24,307,28,32,38,259,40*72
$GPGLL,4647.3851,N,00433.4430,E,083859.000,A,A*5F
$GPGGA,083900.000,4647.3862,N,00433.4430,E,1,08,1.0,268.9,M,47.1,M,,0000*59
$GPGSA,A,3,25,29,14,02,24,31,32,12,,,,,2.4,1.0,2.1*3B
$GPGSV,3,1,10,02,32,088,35,06,18,044,,12,52,065,47,14,34,294,29*72
$GPGSV,3,2,10,19,01,040,,24,29,140,38,25,73,308,46,29,43,202,49*7C
$GPGSV,3,3,10,31,24,307,33,32,38,259,44*7C
$GPGLL,4647.3862,N,00433.4430,E,083900.000,A,A*52
$GPGGA,083901.000,4647.3873,N,00433.4430,E,1,09,1.0,268.6,M,47.1,M,,0000*56
$GPGSA,A,3,25,29,14,02,06,24,31,32,12,,,,2.4,1.0,2.1*3D
$GPGSV,3,1,10,02,32,088,28,06,18,044,20,12,52,065,49,14,34,294,21*7A
$GPGSV,3,2,10,19,01,040,,24,29,140,36,25,73,308,47,29,43,202,48*72
$GPGSV,3,3,10,31,24,307,28,32,38,259,45*77
$GPGLL,4647.3873,N,00433.4430,E,083901.000,A,A*53
$GPGGA,083902.000,4647.3883,N,00433.4432,E,1,09,1.0,268.4,M,47.1,M,,0000*5A
$GPGSA,A,3,25,29,14,02,06,24,31,32,12,,,,2.4,1.0,2.1*3D
$GPGSV,3,1,10,02,32,088,35,06,18,044,20,12,52,065,46,14,34,294,23*7B
$GPGSV,3,2,10,19,01,040,,24,29,140,33,25,73,308,46,29,43,202,48*76
$GPGSV,3,3,10,31,24,307,32,32,38,259,44*7D
$GPGLL,4647.3883,N,00433.4432,E,083902.000,A,A*5D
$GPGGA,083903.000,4647.3894,N,00433.4432,E,1,09,1.0,268.2,M,47.1,M,,0000*5B
$GPGSA,A,3,25,29,14,02,06,24,31,32,12,,,,2.4,1.0,2.1*3D
$GPGSV,3,1,10,02,32,088,32,06,18,044,20,12,52,065,49,14,34,294,29*79
$GPGSV,3,2,10,19,01,040,,24,29,140,38,25,73,308,47,29,43,202,49*7D
$GPGSV,3,3,10,31,24,307,28,32,38,259,38*7D
$GPGLL,4647.3894,N,00433.4432,E,083903.000,A,A*5A
$GPGGA,083904.000,4647.3905,N,00433.4433,E,1,09,1.0,267.8,M,47.1,M,,0000*51
$GPGSA,A,3,25,29,14,02,06,24,31,32,12,,,,2.4,1.0,2.1*3D
$GPGSV,3,1,10,02,32,088,32,06,18,044,20,12,52,065,48,14,34,294,29*78
$GPGSV,3,2,10,19,01,040,,24,29,140,36,25,73,308,46,29,43,202,50*7A
$GPGSV,3,3,10,31,24,307,28,32,38,259,39*7C
$GPGLL,4647.3905,N,00433.4433,E,083904.000,A,A*55
$GPGGA,083905.000,4647.3915,N,00433.4434,E,1,08,1.0,267.7,M,47.1,M,,0000*58
$GPGSA,A,3,25,29,14,02,24,31,32,12,,,,,2.4,1.0,2.1*3B
$GPGSV,3,1,10,02,32,088,31,06,18,044,,12,52,065,47,14,34,294,28*77
$GPGSV,3,2,10,19,01,040,,24,29,140,39,25,73,308,46,29,43,202,50*75
$GPGSV,3,3,10,31,24,307,29,32,38,259,28*7D
$GPGLL,4647.3915,N,00433.4434,E,083905.000,A,A*52
$GPGGA,083906.000,4647.3926,N,00433.4435,E,1,09,1.0,267.7,M,47.1,M,,0000*5B
$GPGSA,A,3,25,29,14,02,06,24,31,32,12,,,,2.4,1.0,2.1*3D
$GPGSV,3,1,10,02,32,087,24,06,18,044,24,12,52,065,45,14,34,294,31*70
$GPGSV,3,2,10,19,01,040,,24,29,140,41,25,73,308,46,29,43,202,49*72
$GPGSV,3,3,10,31,24,307,33,32,38,259,35*7A
$GPGLL,4647.3926,N,00433.4435,E,083906.000,A,A*50
$GPGGA,083907.000,4647.3936,N,00433.4437,E,1,09,1.0,267.6,M,47.1,M,,0000*58
$GPGSA,A,3,25,29,14,02,06,24,31,32,12,,,,2.4,1.0,2.1*3D
$GPGSV,3,1,10,02,32,087,29,06,18,044,23,12,52,065,47,14,34,294,27*7F
$GPGSV,3,2,10,19,01,040,,24,29,140,37,25,73,308,45,29,43,202,49*70
$GPGSV,3,3,10,31,24,307,29,32,38,259,41*72
$GPGLL,4647.3936,N,00433.4437,E,083907.000,A,A*52
$GPGGA,083908.000,4647.3946,N,00433.4438,E,1,09,0.9,267.5,M,47.1,M,,0000*54
$GPGSA,A,3,25,29,14,02,06,24,31,32,12,,,,2.0,0.9,1.8*3B
$GPGSV,3,1,10,02,32,087,22,06,18,044,22,12,52,065,47,14,34,294,28*7A
$GPGSV,3,2,10,19,01,040,,24,29,140,28,25,73,308,46,29,43,202,49*7D
$GPGSV,3,3,10,31,24,307,28,32,38,259,39*7C
$GPGLL,4647.3946,N,00433.4438,E,083908.000,A,A*55
$GPGGA,083909.000,4647.3956,N,00433.4439,E,1,09,0.9,267.4,M,47.1,M,,0000*54
$GPGSA,A,3,25,29,14,02,06,24,31,32,12,,,,2.0,0.9,1.8*3B
$GPGSV,3,1,10,02,32,087,29,06,18,044,21,12,52,065,45,14,34,294,28*70
$GPGSV,3,2,10,19,01,040,,24,29,140,36,25,73,308,46,29,43,202,49*72
$GPGSV,3,3,10,31,24,307,32,32,38,259,40*79
$GPGLL,4647.3956,N,00433.4439,E,083909.000,A,A*54
$GPGGA,083910.000,4647.3966,N,00433.4439,E,1,09,0.9,267.1,M,47.1,M,,0000*5A
$GPGSA,A,3,25,29,14,02,06,24,31,32,12,,,,2.1,0.9,1.8*3A
$GPGSV,3,1,10,02,32,087,23,06,18,043,22,12,52,065,46,14,34,294,28*7D
$GPGSV,3,2,10,19,01,040,,24,29,140,33,25,73,308,45,29,43,202,49*74
$GPGSV,3,3,10,31,24,307,28,32,38,259,44*76
$GPGLL,4647.3966,N,00433.4439,E,083910.000,A,A*5F
$GPGGA,083911.000,4647.3976,N,00433.4439,E,1,07,1.2,266.6,M,47.1,M,,0000*58
$GPGSA,A,3,25,29,14,24,31,32,12,,,,,,2.5,1.2,2.2*39
$GPGSV,3,1,10,02,32,087,,06,18,043,,12,52,065,46,14,34,294,29*7D
$GPGSV,3,2,10,19,01,040,,24,29,140,36,25,73,308,46,29,43,202,49*72
$GPGSV,3,3,10,31,24,307,27,32,38,259,45*78
$GPGLL,4647.3976,N,00433.4439,E,083911.000,A,A*5F
$GPGGA,083912.000,4647.3987,N,00433.4439,E,1,08,1.0,265.7,M,47.1,M,,0000*5A
$GPGSA,A,3,25,29,14,02,24,31,32,12,,,,,2.4,1.0,2.1*3B
$GPGSV,3,1,10,02,32,087,34,06,18,043,,12,52,065,43,14,34,294,31*76
$GPGSV,3,2,10,19,01,040,,24,29,140,34,25,73,308,45,29,43,202,49*73
$GPGSV,3,3,10,31,24,307,28,32,38,259,46*74
$GPGLL,4647.3987,N,00433.4439,E,083912.000,A,A*52
$GPGGA,083913.000,4647.3996,N,00433.4440,E,1,07,1.2,265.9,M,47.1,M,,0000*56
$GPGSA,A,3,25,29,14,24,31,32,12,,,,,,2.5,1.2,2.2*39
$GPGSV,3,1,10,02,32,087,,06,18,043,,12,52,065,41,14,34,294,29*7A
$GPGSV,3,2,10,19,01,040,,24,29,140,36,25,73,308,47,29,43,202,49*73
$GPGSV,3,3,10,31,24,307,28,32,38,259,46*74
$GPGLL,4647.3996,N,00433.4440,E,083913.000,A,A*5D
$GPGGA,083914.000,4647.4006,N,00433.4441,E,1,08,1.2,265.5,M,47.1,M,,0000*54
$GPGSA,A,3,25,29,14,02,24,31,32,12,,,,,2.5,1.2,2.2*3B
$GPGSV,3,1,10,02,32,087,25,06,18,043,,12,52,065,44,14,34,294,28*79
$GPGSV,3,2,10,19,01,040,,24,29,140,33,25,73,308,47,29,43,202,48*77
$GPGSV,3,3,10,31,24,307,32,32,38,259,45*7C
$GPGLL,4647.4006,N,00433.4441,E,083914.000,A,A*5C
$GPGGA,083915.000,4647.4015,N,00433.4443,E,1,08,1.2,265.4,M,47.1,M,,0000*54
$GPGSA,A,3,25,29,14,06,24,31,32,12,,,,,2.5,1.2,2.2*3F
$GPGSV,3,1,10,02,32,087,,06,18,043,31,12,52,065,34,14,34,294,36*74
$GPGSV,3,2,10,19,01,040,,24,29,140,27,25,73,308,47,29,43,202,49*73
$GPGSV,3,3,10,31,24,307,33,32,38,259,45*7D
$GPGLL,4647.4015,N,00433.4443,E,083915.000,A,A*5D
$GPGGA,083916.000,4647.4025,N,00433.4445,E,1,09,1.0,265.2,M,47.1,M,,0000*57
$GPGSA,A,3,25,29,14,02,06,24,31,32,12,,,,2.4,1.0,2.1*3D
$GPGSV,3,1,10,02,32,087,32,06,18,043,24,12,52,065,47,14,34,294,27*75
$GPGSV,3,2,10,19,01,040,,24,29,140,34,25,73,308,46,29,43,202,49*70
$GPGSV,3,3,10,31,24,307,29,32,38,259,47*74
$GPGLL,4647.4025,N,00433.4445,E,083916.000,A,A*5B
$GPGGA,083917.000,4647.4035,N,00433.4447,E,1,09,0.9,264.9,M,47.1,M,,0000*57
$GPGSA,A,3,25,29,14,02,06,24,31,32,12,,,,2.0,0.9,1.8*3B
$GPGSV,3,1,10,02,32,087,33,06,18,043,25,12,52,065,42,14,34,294,28*7F
$GPGSV,3,2,10,19,01,040,,24,29,140,31,25,73,308,46,29,43,202,49*75
$GPGSV,3,3,10,31,24,307,28,32,38,259,45*77
$GPGLL,4647.4035,N,00433.4447,E,083917.000,A,A*59
$GPGGA,083918.000,4647.4044,N,00433.4448,E,1,09,0.9,264.9,M,47.1,M,,0000*51
$GPGSA,A,3,25,29,14,02,06,24,31,32,12,,,,2.0,0.9,1.8*3B
$GPGSV,3,1,10,02,32,087,29,06,18,043,23,12,52,065,44,14,34,293,28*73
$GPGSV,3,2,10,19,01,040,,24,29,140,32,25,73,308,46,29,43,202,48*77
$GPGSV,3,3,10,31,24,307,28,32,38,259,48*7A
$GPGLL,4647.4044,N,00433.4448,E,083918.000,A,A*5F
$GPGGA,083919.000,4647.4054,N,00433.4448,E,1,08,1.1,264.8,M,47.1,M,,0000*58
$GPGSA,A,3,25,29,14,02,06,31,32,12,,,,,2.3,1.1,2.0*3C
$GPGSV,3,1,10,02,32,087,28,06,18,043,23,12,52,065,35,14,34,293,22*7E
$GPGSV,3,2,10,19,01,040,,24,29,140,,25,73,308,45,29,43,202,49*74
$GPGSV,3,3,10,31,24,307,32,32,38,259,48*71
$GPGLL,4647.4054,N,00433.4448,E,083919.000,A,A*5F
$GPGGA,083920.000,4647.4064,N,00433.4449,E,1,09,0.9,264.6,M,47.1,M,,0000*56
$GPGSA,A,3,25,29,14,02,06,24,31,32,12,,,,2.1,0.9,1.8*3A
$GPGSV,3,1,10,02,32,087,32,06,18,043,22,12,52,065,41,14,34,293,24*71
$GPGSV,3,2,10,19,01,040,,24,29,140,29,25,73,308,46,29,43,202,49*7C
$GPGSV,3,3,10,31,24,307,29,32,38,259,47*74
$GPGLL,4647.4064,N,00433.4449,E,083920.000,A,A*57
$GPGGA,083921.000,4647.4073,N,00433.4451,E,1,09,0.9,264.3,M,47.1,M,,0000*5D
$GPGSA,A,3,25,29,14,02,06,24,31,32,12,,,,2.0,0.9,1.8*3B
$GPGSV,3,1,10,02,32,087,32,06,18,043,22,12,52,065,40,14,34,293,25*71
$GPGSV,3,2,10,19,01,040,,24,29,140,36,25,73,308,48,29,43,202,49*7C
$GPGSV,3,3,10,31,24,307,29,32,38,259,47*74
$GPGLL,4647.4073,N,00433.4451,E,083921.000,A,A*59
$GPGGA,083922.000,4647.4083,N,00433.4453,E,1,09,0.9,263.9,M,47.1,M,,0000*5E
$GPGSA,A,3,25,29,14,02,06,24,31,32,12,,,,2.1,0.9,1.8*3A
$GPGSV,3,1,10,02,32,087,27,06,18,043,22,12,52,065,45,14,34,293,25*70
$GPGSV,3,2,10,19,01,040,,24,29,140,36,25,73,308,45,29,43,202,47*7F
$GPGSV,3,3,10,31,24,307,32,32,38,259,46*7F
$GPGLL,4647.4083,N,00433.4453,E,083922.000,A,A*57
