$GPGSV,3,1,12,03,80,322,46,26,38,121,41,16,53,081,40,22,56,014,38*7B
$GPGSV,3,2,12,23,52,198,36,07,15,295,36,14,06,087,30,09,21,234,28*7A
$GPGSV,3,3,12,06,05,230,24,57,80,308,44,42,54,333,37,01,15,331,*7B
$GPGGA,091724.551,,,,,0,08,,,M,0.0,M,,0000*56
$GPGSA,M,1,,,,,,,,,,,,,,,*12
$GPGGA,091725.551,,,,,0,08,,,M,0.0,M,,0000*57
$GPGSA,M,1,,,,,,,,,,,,,,,*12
$GPGGA,091726.551,2729.2963,S,15300.4390,E,1,06,2.4,30.9,M,37.1,M,,0000*7D
$GPGSA,M,3,03,57,22,16,26,07,,,,,,,3.1,2.4,2.0*3D
$GPGGA,091727.551,2729.2962,S,15300.4395,E,1,06,2.4,30.9,M,37.1,M,,0000*78
$GPGSA,M,3,03,57,22,16,26,07,,,,,,,3.1,2.4,2.0*3D
$GPGGA,091728.000,2729.2962,S,15300.4396,E,1,06,2.4,30.8,M,37.1,M,,0000*74
$GPGSA,M,3,03,57,22,16,26,07,,,,,,,3.1,2.4,2.0*3D
$GPGSV,3,1,12,03,80,322,46,57,76,349,38,22,56,014,37,16,53,081,41*7B
$GPGSV,3,2,12,26,37,121,40,07,15,295,36,04,00,000,42,09,21,234,37*7C
$GPGSV,3,3,12,14,06,087,26,23,52,198,42,42,54,333,32,01,15,331,*73
$GPGGA,091729.000,2729.2955,S,15300.4393,E,1,06,2.4,27.5,M,37.1,M,,0000*7F
$GPGSA,M,3,03,57,22,16,26,07,,,,,,,3.1,2.4,2.0*3D
$GPGGA,091730.000,2729.2955,S,15300.4393,E,1,06,2.4,27.5,M,37.1,M,,0000*77
$GPGSA,M,3,03,57,22,16,26,07,,,,,,,3.1,2.4,2.0*3D
$GPGGA,091731.000,2729.2955,S,15300.4393,E,2,04,3.4,27.5,M,37.1,M,2.0,0000*5A
$GPGSA,M,3,03,22,16,07,,,,,,,,,4.4,3.4,2.8*30
$GPGGA,091732.000,2729.2955,S,15300.4393,E,2,04,3.4,27.5,M,37.1,M,3.0,0000*58
$GPGSA,M,3,03,22,16,07,,,,,,,,,4.4,3.4,2.8*30
$GPGGA,091733.000,2729.2926,S,15300.4424,E,2,04,3.4,21.9,M,37.1,M,4.0,0000*5B
$GPGSA,M,3,03,22,16,07,,,,,,,,,4.4,3.4,2.8*30
$GPGSV,3,1,12,03,80,322,42,22,56,014,39,16,53,081,40,07,15,295,39*71
$GPGSV,3,2,12,09,21,234,27,14,06,087,27,23,52,198,43,26,37,121,46*79
$GPGSV,3,3,12,31,07,131,23,57,76,349,40,42,54,333,29,01,15,331,*7F
$GPGGA,091734.000,2729.2916,S,15300.4430,E,2,04,3.4,20.8,M,37.1,M,5.0,0000*5B
$GPGSA,M,3,03,22,16,07,,,,,,,,,4.4,3.4,2.8*30
$GPGGA,091735.000,2729.2913,S,15300.4432,E,2,04,3.4,20.3,M,37.1,M,6.0,0000*55
$GPGSA,M,3,03,22,16,07,,,,,,,,,4.4,3.4,2.8*30
$GPGGA,091736.000,2729.2912,S,15300.4433,E,2,04,3.4,20.0,M,37.1,M,2.0,0000*51
$GPGSA,M,3,03,22,16,07,,,,,,,,,4.4,3.4,2.8*30
$GPGGA,091737.000,2729.2910,S,15300.4435,E,2,04,3.4,19.9,M,37.1,M,2.0,0000*57
$GPGSA,M,3,03,22,16,07,,,,,,,,,4.4,3.4,2.8*30
$GPGGA,091738.000,2729.2910,S,15300.4440,E,2,04,3.4,19.7,M,37.1,M,3.0,0000*55
$GPGSA,M,3,03,22,16,07,,,,,,,,,4.4,3.4,2.8*30
$GPGSV,3,1,12,03,80,322,45,22,56,014,40,16,53,081,42,07,15,295,38*7B
$GPGSV,3,2,12,01,15,331,29,09,21,234,27,23,52,198,45,26,37,121,41*7E
$GPGSV,3,3,12,31,07,131,30,57,76,349,43,42,54,333,37,14,06,087,*79
$GPGGA,091739.000,2729.2910,S,15300.4445,E,2,04,3.4,19.6,M,37.1,M,4.0,0000*57
$GPGSA,M,3,03,22,16,07,,,,,,,,,4.4,3.4,2.8*30
$GPGGA,091740.000,2729.2910,S,15300.4450,E,2,04,3.4,19.6,M,37.1,M,5.0,0000*5C
$GPGSA,M,3,03,22,16,07,,,,,,,,,4.4,3.4,2.8*30
$GPGGA,091741.000,2729.2911,S,15300.4455,E,2,04,3.4,19.5,M,37.1,M,2.0,0000*5D
$GPGSA,M,3,03,22,16,07,,,,,,,,,4.4,3.4,2.8*30
$GPGGA,091742.000,2729.2910,S,15300.4461,E,2,04,3.4,19.5,M,37.1,M,3.0,0000*59
$GPGSA,M,3,03,22,16,07,,,,,,,,,4.4,3.4,2.8*30
$GPGGA,091743.000,2729.2909,S,15300.4466,E,2,04,3.4,19.5,M,37.1,M,4.0,0000*50
$GPGSA,M,3,03,22,16,07,,,,,,,,,4.4,3.4,2.8*30
$GPGSV,3,1,12,03,80,322,42,22,56,014,31,16,53,081,40,07,15,295,37*77
$GPGSV,3,2,12,01,15,331,32,09,21,234,32,23,52,198,46,26,37,121,41*73
$GPGSV,3,3,12,31,07,131,37,57,76,349,42,42,54,333,33,14,06,087,*7B
$GPGGA,091744.000,2729.2907,S,15300.4472,E,2,04,3.4,19.6,M,37.1,M,5.0,0000*5E
$GPGSA,M,3,03,22,16,07,,,,,,,,,4.4,3.4,2.8*30
$GPGGA,091745.000,2729.2905,S,15300.4478,E,2,04,3.4,19.6,M,37.1,M,6.0,0000*54
$GPGSA,M,3,03,22,16,07,,,,,,,,,4.4,3.4,2.8*30
$GPGGA,091746.000,2729.2901,S,15300.4485,E,2,04,3.4,19.7,M,37.1,M,7.0,0000*51
$GPGSA,M,3,03,22,16,07,,,,,,,,,4.4,3.4,2.8*30
$GPGGA,091747.000,2729.2898,S,15300.4491,E,2,04,3.4,19.7,M,37.1,M,2.0,0000*51
$GPGSA,M,3,03,22,16,07,,,,,,,,,4.4,3.4,2.8*30
$GPGGA,091748.000,2729.2896,S,15300.4496,E,2,04,3.4,19.8,M,37.1,M,2.0,0000*58
$GPGSA,M,3,03,22,16,07,,,,,,,,,4.4,3.4,2.8*30
$GPGSV,3,1,12,03,80,323,44,22,56,014,38,16,53,082,40,07,15,295,38*75
$GPGSV,3,2,12,01,15,331,20,09,21,234,32,23,52,198,46,26,37,121,40*71
$GPGSV,3,3,12,31,07,131,31,57,76,349,43,42,54,333,37,14,06,087,*78
$GPGGA,091749.000,2729.2895,S,15300.4502,E,2,04,3.4,19.8,M,37.1,M,1.0,0000*55
$GPGSA,M,3,03,22,16,07,,,,,,,,,4.4,3.4,2.8*30
$GPGGA,091750.000,2729.2894,S,15300.4508,E,2,04,3.4,19.8,M,37.1,M,2.0,0000*55
$GPGSA,M,3,03,22,16,07,,,,,,,,,4.4,3.4,2.8*30
$GPGGA,091751.000,2729.2893,S,15300.4513,E,2,04,3.4,19.8,M,37.1,M,3.0,0000*58
$GPGSA,M,3,03,22,16,07,,,,,,,,,4.4,3.4,2.8*30
$GPGGA,091752.000,2729.2892,S,15300.4519,E,2,04,3.4,19.8,M,37.1,M,4.0,0000*57
$GPGSA,M,3,03,22,16,07,,,,,,,,,4.4,3.4,2.8*30
$GPGGA,091753.000,2729.2891,S,15300.4524,E,2,04,3.4,19.8,M,37.1,M,2.0,0000*5D
$GPGSA,M,3,03,22,16,07,,,,,,,,,4.4,3.4,2.8*30
$GPGSV,3,1,12,03,80,323,45,22,56,014,38,16,53,082,41,07,15,295,38*75
$GPGSV,3,2,12,01,15,331,24,09,21,234,33,23,52,198,46,26,37,121,39*7A
$GPGSV,3,3,12,31,07,131,27,57,76,349,44,42,54,333,37,14,06,087,*78
$GPGGA,091754.000,2729.2890,S,15300.4530,E,2,04,3.4,19.8,M,37.1,M,2.0,0000*5E
$GPGSA,M,3,03,22,16,07,,,,,,,,,4.4,3.4,2.8*30
$GPGGA,091755.000,2729.2888,S,15300.4535,E,2,04,3.4,19.9,M,37.1,M,3.0,0000*53
$GPGSA,M,3,03,22,16,07,,,,,,,,,4.4,3.4,2.8*30
$GPGGA,091756.000,2729.2888,S,15300.4540,E,2,04,3.4,19.9,M,37.1,M,4.0,0000*55
$GPGSA,M,3,03,22,16,07,,,,,,,,,4.4,3.4,2.8*30
$GPGGA,091757.000,2729.2888,S,15300.4545,E,2,04,3.4,20.0,M,37.1,M,5.0,0000*53
$GPGSA,M,3,03,22,16,07,,,,,,,,,4.4,3.4,2.8*30
$GPGGA,091758.000,2729.2887,S,15300.4551,E,2,04,3.4,19.9,M,37.1,M,6.0,0000*56
$GPGSA,M,3,03,22,16,07,,,,,,,,,4.4,3.4,2.8*30
$GPGSV,3,1,12,03,80,323,45,22,56,014,32,16,53,082,32,07,15,295,37*74
$GPGSV,3,2,12,01,15,331,23,09,21,234,34,23,52,198,46,26,37,121,39*7A
$GPGSV,3,3,12,31,07,131,26,57,76,349,44,42,54,333,31,14,06,087,*7F
$GPGGA,091759.000,2729.2887,S,15300.4557,E,2,04,3.4,19.9,M,37.1,M,7.0,0000*50
$GPGSA,M,3,03,22,16,07,,,,,,,,,4.4,3.4,2.8*30
$GPGGA,091800.000,2729.2886,S,15300.4562,E,2,04,3.4,19.9,M,37.1,M,8.0,0000*5B
$GPGSA,M,3,03,22,16,07,,,,,,,,,4.4,3.4,2.8*30
$GPGGA,091801.000,2729.2887,S,15300.4567,E,2,04,3.4,19.9,M,37.1,M,9.0,0000*5F
$GPGSA,M,3,03,22,16,07,,,,,,,,,4.4,3.4,2.8*30
$GPGGA,091802.000,2729.2888,S,15300.4572,E,2,04,3.4,19.9,M,37.1,M,10.0,0000*6F
$GPGSA,M,3,03,22,16,07,,,,,,,,,4.4,3.4,2.8*30
$GPGGA,091803.000,2729.2889,S,15300.4577,E,2,04,3.4,19.9,M,37.1,M,11.0,0000*6B
$GPGSA,M,3,03,22,16,07,,,,,,,,,4.4,3.4,2.8*30
$GPGSV,3,1,12,03,80,324,42,22,56,014,40,16,53,082,36,07,15,295,26*75
$GPGSV,3,2,12,01,15,331,31,09,21,234,34,23,52,198,45,26,37,121,38*7B
$GPGSV,3,3,12,31,07,131,26,57,76,349,37,42,54,333,28,14,06,087,*73
$GPGGA,091804.000,2729.2890,S,15300.4581,E,2,04,3.4,19.8,M,37.1,M,12.0,0000*6F
$GPGSA,M,3,03,22,16,07,,,,,,,,,4.4,3.4,2.8*30
$GPGGA,091805.000,2729.2891,S,15300.4586,E,2,04,3.4,19.8,M,37.1,M,13.0,0000*69
$GPGSA,M,3,03,22,16,07,,,,,,,,,4.4,3.4,2.8*30
$GPGGA,091806.000,2729.2908,S,15300.4587,E,1,06,2.7,19.4,M,37.1,M,,0000*79
$GPGSA,M,3,03,57,22,16,23,26,,,,,,,7.5,2.7,7.0*3D
$GPGGA,091807.000,2729.2907,S,15300.4593,E,2,04,3.4,19.3,M,37.1,M,15.0,0000*6C
$GPGSA,M,3,03,22,16,07,,,,,,,,,4.4,3.4,2.8*30
$GPGGA,091808.000,2729.2906,S,15300.4599,E,2,04,3.4,19.2,M,37.1,M,16.0,0000*6A
$GPGSA,M,3,03,22,16,07,,,,,,,,,4.4,3.4,2.8*30
$GPGSV,3,1,12,03,80,324,41,22,56,014,38,16,53,082,37,07,15,295,18*75
$GPGSV,3,2,12,01,15,331,29,09,21,234,33,23,52,198,43,26,37,121,38*73
$GPGSV,3,3,12,31,07,131,29,57,76,349,38,42,54,333,35,14,06,087,*7F
$GPGGA,091809.000,2729.2905,S,15300.4603,E,2,04,3.4,19.2,M,37.1,M,17.0,0000*69
$GPGSA,M,3,03,22,16,07,,,,,,,,,4.4,3.4,2.8*30
$GPGGA,091810.000,2729.2904,S,15300.4609,E,2,04,3.4,19.1,M,37.1,M,18.0,0000*66
$GPGSA,M,3,03,22,16,07,,,,,,,,,4.4,3.4,2.8*30
$GPGGA,091811.000,2729.2907,S,15300.4612,E,1,07,1.4,19.1,M,37.1,M,,0000*7B
$GPGSA,M,3,03,57,22,16,23,26,07,,,,,,2.3,1.4,1.8*37
$GPGGA,091812.000,2729.2908,S,15300.4615,E,1,07,1.4,19.2,M,37.1,M,,0000*73
$GPGSA,M,3,03,57,22,16,23,26,07,,,,,,2.3,1.4,1.8*37
$GPGGA,091813.000,2729.2909,S,15300.4619,E,1,07,1.4,19.4,M,37.1,M,,0000*79
$GPGSA,M,3,03,57,22,16,23,26,07,,,,,,2.3,1.4,1.8*37
$GPGSV,3,1,12,03,80,324,41,57,76,349,39,22,56,014,35,16,53,082,42*79
$GPGSV,3,2,12,23,52,198,43,26,37,121,38,07,16,295,18,01,15,331,35*76
$GPGSV,3,3,12,09,21,234,33,31,07,131,28,42,54,333,30,14,06,087,*72
$GPGGA,091814.000,2729.2910,S,15300.4623,E,1,07,1.4,19.5,M,37.1,M,,0000*7E
$GPGSA,M,3,03,57,22,16,23,26,07,,,,,,2.3,1.4,1.8*37
$GPGGA,091815.000,2729.2911,S,15300.4627,E,1,07,1.4,19.6,M,37.1,M,,0000*79
$GPGSA,M,3,03,57,22,16,23,26,07,,,,,,2.3,1.4,1.8*37
$GPGGA,091816.000,2729.2911,S,15300.4631,E,1,07,1.4,19.7,M,37.1,M,,0000*7C
$GPGSA,M,3,03,57,22,16,23,26,07,,,,,,2.3,1.4,1.8*37
$GPGGA,091817.000,2729.2910,S,15300.4636,E,1,07,1.4,19.8,M,37.1,M,,0000*74
$GPGSA,M,3,03,57,22,16,23,26,07,,,,,,2.3,1.4,1.8*37
$GPGGA,091818.000,2729.2910,S,15300.4640,E,1,07,1.4,19.8,M,37.1,M,,0000*7A
$GPGSA,M,3,03,57,22,16,23,26,07,,,,,,2.3,1.4,1.8*37
$GPGSV,3,1,12,03,80,324,44,57,76,349,41,22,56,014,37,16,53,082,43*70
$GPGSV,3,2,12,23,52,198,44,26,37,121,39,07,16,295,18,01,15,331,36*73
$GPGSV,3,3,12,09,21,234,31,31,07,131,23,42,54,333,33,14,06,087,*78
$GPGGA,091819.000,2729.2911,S,15300.4644,E,1,07,1.4,20.0,M,37.1,M,,0000*7C
$GPGSA,M,3,03,57,22,16,23,26,07,,,,,,2.3,1.4,1.8*37
$GPGGA,091820.000,2729.2912,S,15300.4645,E,1,07,1.4,20.3,M,37.1,M,,0000*77
$GPGSA,M,3,03,57,22,16,23,26,07,,,,,,2.3,1.4,1.8*37
$GPGGA,091821.000,2729.2913,S,15300.4643,E,1,07,1.4,20.4,M,37.1,M,,0000*76
$GPGSA,M,3,03,57,22,16,23,26,07,,,,,,2.3,1.4,1.8*37
$GPGGA,091822.000,2729.2913,S,15300.4643,E,1,07,1.4,20.4,M,37.1,M,,0000*75
$GPGSA,M,3,03,57,22,16,23,26,07,,,,,,2.3,1.4,1.8*37
$GPGGA,091823.000,2729.2914,S,15300.4635,E,1,07,1.4,20.8,M,37.1,M,,0000*7E
$GPGSA,M,3,03,57,22,16,23,26,07,,,,,,2.3,1.4,1.8*37
$GPGSV,3,1,12,03,80,324,45,57,76,349,42,22,56,014,37,16,53,082,39*7F
$GPGSV,3,2,12,23,52,198,43,26,37,121,40,07,16,295,17,01,15,331,35*76
$GPGSV,3,3,12,09,21,234,29,31,07,131,23,42,54,333,38,14,06,087,*7A
$GPGGA,091824.000,2729.2915,S,15300.4630,E,1,07,1.4,21.2,M,37.1,M,,0000*76
$GPGSA,M,3,03,57,22,16,23,26,07,,,,,,2.3,1.4,1.8*37
$GPGGA,091825.000,2729.2916,S,15300.4624,E,1,07,1.4,21.4,M,37.1,M,,0000*77
$GPGSA,M,3,03,57,22,16,23,26,07,,,,,,2.3,1.4,1.8*37
$GPGGA,091826.000,2729.2918,S,15300.4619,E,1,07,1.4,21.5,M,37.1,M,,0000*75
$GPGSA,M,3,03,57,22,16,23,26,07,,,,,,2.3,1.4,1.8*37
$GPGGA,091827.000,2729.2919,S,15300.4613,E,1,07,1.4,21.7,M,37.1,M,,0000*7D
$GPGSA,M,3,03,57,22,16,23,26,07,,,,,,2.3,1.4,1.8*37
$GPGGA,091828.000,2729.2919,S,15300.4608,E,1,07,1.4,21.8,M,37.1,M,,0000*77
$GPGSA,M,3,03,57,22,16,23,26,07,,,,,,2.3,1.4,1.8*37
$GPGSV,3,1,12,03,80,324,44,57,76,349,38,22,56,014,39,16,53,082,38*7C
$GPGSV,3,2,12,23,52,198,37,26,37,121,39,07,16,295,18,01,15,331,34*75
$GPGSV,3,3,12,04,00,000,44,09,21,234,28,31,07,131,22,42,54,333,*79
$GPGGA,091829.000,2729.2919,S,15300.4602,E,1,07,1.4,21.9,M,37.1,M,,0000*7D
$GPGSA,M,3,03,57,22,16,23,26,07,,,,,,2.3,1.4,1.8*37
$GPGGA,091830.000,2729.2920,S,15300.4597,E,1,07,1.4,22.1,M,37.1,M,,0000*7B
$GPGSA,M,3,03,57,22,16,23,26,07,,,,,,2.3,1.4,1.8*37
$GPGGA,091831.000,2729.2921,S,15300.4592,E,1,07,1.4,22.2,M,37.1,M,,0000*7D
$GPGSA,M,3,03,57,22,16,23,26,07,,,,,,2.3,1.4,1.8*37
$GPGGA,091832.000,2729.2923,S,15300.4586,E,1,07,1.4,22.3,M,37.1,M,,0000*78
$GPGSA,M,3,03,57,22,16,23,26,07,,,,,,2.3,1.4,1.8*37
$GPGGA,091833.000,2729.2925,S,15300.4581,E,1,07,1.4,22.4,M,37.1,M,,0000*7F
$GPGSA,M,3,03,57,22,16,23,26,07,,,,,,2.3,1.4,1.8*37
$GPGSV,3,1,12,03,80,324,43,57,76,349,39,22,56,014,39,16,53,082,32*70
$GPGSV,3,2,12,23,52,198,37,26,37,121,39,07,16,295,19,01,15,331,26*77
$GPGSV,3,3,12,09,21,234,30,31,07,131,23,42,54,333,30,14,06,087,*7A
$GPGGA,091834.000,2729.2926,S,15300.4576,E,1,07,1.4,22.7,M,37.1,M,,0000*70
$GPGSA,M,3,03,57,22,16,23,26,07,,,,,,2.3,1.4,1.8*37
$GPGGA,091835.000,2729.2927,S,15300.4571,E,1,07,1.4,22.9,M,37.1,M,,0000*79
$GPGSA,M,3,03,57,22,16,23,26,07,,,,,,2.3,1.4,1.8*37
$GPGGA,091836.000,2729.2927,S,15300.4566,E,1,07,1.4,23.0,M,37.1,M,,0000*74
$GPGSA,M,3,03,57,22,16,23,26,07,,,,,,2.3,1.4,1.8*37
$GPGGA,091837.000,2729.2928,S,15300.4561,E,1,07,1.4,23.2,M,37.1,M,,0000*7F
$GPGSA,M,3,03,57,22,16,23,26,07,,,,,,2.3,1.4,1.8*37
$GPGGA,091838.000,2729.2929,S,15300.4555,E,1,07,1.4,23.2,M,37.1,M,,0000*76
$GPGSA,M,3,03,57,22,16,23,26,07,,,,,,2.3,1.4,1.8*37
$GPGSV,3,1,12,03,80,324,42,57,76,349,39,22,56,014,35,16,53,082,33*7C
$GPGSV,3,2,12,23,52,198,39,26,37,121,33,07,16,295,33,01,15,331,26*7B
$GPGSV,3,3,12,09,21,234,30,31,07,131,26,42,54,333,30,14,06,087,*7F
$GPGGA,091839.000,2729.2930,S,15300.4550,E,1,07,1.4,23.2,M,37.1,M,,0000*7A
$GPGSA,M,3,03,57,22,16,23,26,07,,,,,,2.3,1.4,1.8*37
$GPGGA,091840.000,2729.2931,S,15300.4544,E,1,07,1.4,23.3,M,37.1,M,,0000*71
$GPGSA,M,3,03,57,22,16,23,26,07,,,,,,2.3,1.4,1.8*37
$GPGGA,091841.000,2729.2931,S,15300.4538,E,1,07,1.4,23.3,M,37.1,M,,0000*7B
$GPGSA,M,3,03,57,22,16,23,26,07,,,,,,2.3,1.4,1.8*37
$GPGGA,091842.000,2729.2932,S,15300.4532,E,1,07,1.4,23.3,M,37.1,M,,0000*71
$GPGSA,M,3,03,57,22,16,23,26,07,,,,,,2.3,1.4,1.8*37
$GPGGA,091843.000,2729.2933,S,15300.4525,E,1,07,1.4,23.3,M,37.1,M,,0000*77
$GPGSA,M,3,03,57,22,16,23,26,07,,,,,,2.3,1.4,1.8*37
$GPGSV,3,1,12,03,80,324,43,57,76,349,40,22,56,014,35,16,53,082,33*73
$GPGSV,3,2,12,23,52,198,39,26,37,121,35,07,16,295,41,01,15,331,25*7B
$GPGSV,3,3,12,09,21,234,28,31,07,131,24,42,54,333,36,14,06,087,*72
$GPGGA,091844.000,2729.2934,S,15300.4519,E,1,07,1.4,23.3,M,37.1,M,,0000*78
$GPGSA,M,3,03,57,22,16,23,26,07,,,,,,2.3,1.4,1.8*37
$GPGGA,091845.000,2729.2936,S,15300.4512,E,1,07,1.4,23.4,M,37.1,M,,0000*77
$GPGSA,M,3,03,57,22,16,23,26,07,,,,,,2.3,1.4,1.8*37
$GPGGA,091846.000,2729.2937,S,15300.4506,E,1,07,1.4,23.5,M,37.1,M,,0000*71
$GPGSA,M,3,03,57,22,16,23,26,07,,,,,,2.3,1.4,1.8*37
$GPGGA,091847.000,2729.2939,S,15300.4500,E,1,07,1.4,23.6,M,37.1,M,,0000*7B
$GPGSA,M,3,03,57,22,16,23,26,07,,,,,,2.3,1.4,1.8*37
$GPGGA,091848.000,2729.2940,S,15300.4494,E,1,07,1.4,23.7,M,37.1,M,,0000*77
$GPGSA,M,3,03,57,22,16,23,26,07,,,,,,2.3,1.4,1.8*37
$GPGSV,3,1,12,03,79,325,45,57,76,349,42,22,56,014,42,16,53,082,38*7B
$GPGSV,3,2,12,23,53,198,40,26,37,122,35,07,16,295,40,01,15,331,30*72
$GPGSV,3,3,12,09,22,233,29,31,07,131,23,42,54,333,37,14,06,087,*71
$GPGGA,091849.000,2729.2942,S,15300.4488,E,1,07,1.4,23.8,M,37.1,M,,0000*76
$GPGSA,M,3,03,57,22,16,23,26,07,,,,,,2.3,1.4,1.8*37
$GPGGA,091850.000,2729.2943,S,15300.4481,E,1,07,1.4,23.9,M,37.1,M,,0000*77
$GPGSA,M,3,03,57,22,16,23,26,07,,,,,,2.3,1.4,1.8*37
$GPGGA,091851.000,2729.2945,S,15300.4475,E,1,07,1.4,24.0,M,37.1,M,,0000*75
$GPGSA,M,3,03,57,22,16,23,26,07,,,,,,2.3,1.4,1.8*37
$GPGGA,091852.000,2729.2946,S,15300.4468,E,1,07,1.4,24.1,M,37.1,M,,0000*78
$GPGSA,M,3,03,57,22,16,23,26,07,,,,,,2.3,1.4,1.8*37
$GPGGA,091853.000,2729.2947,S,15300.4462,E,1,07,1.4,24.1,M,37.1,M,,0000*72
$GPGSA,M,3,03,57,22,16,23,26,07,,,,,,2.3,1.4,1.8*37
$GPGSV,3,1,12,03,79,325,45,57,76,349,43,22,56,014,42,16,53,082,38*7A
$GPGSV,3,2,12,23,53,198,40,26,37,122,36,07,16,295,39,01,15,331,21*7F
$GPGSV,3,3,12,09,22,233,31,31,07,131,28,42,54,333,35,14,06,087,*71
$GPGGA,091854.000,2729.2948,S,15300.4456,E,1,06,2.6,24.2,M,37.1,M,,0000*7E
$GPGSA,M,3,03,57,22,16,23,26,,,,,,,7.4,2.6,6.9*35
$GPGGA,091855.000,2729.2949,S,15300.4450,E,1,07,1.4,24.3,M,37.1,M,,0000*79
$GPGSA,M,3,03,57,22,16,23,26,07,,,,,,2.3,1.4,1.8*37
$GPGGA,091856.000,2729.2950,S,15300.4444,E,1,07,1.4,24.4,M,37.1,M,,0000*70
$GPGSA,M,3,03,57,22,16,23,26,07,,,,,,2.3,1.4,1.8*37
$GPGGA,091857.000,2729.2951,S,15300.4438,E,1,08,1.2,24.5,M,37.1,M,,0000*73
$GPGSA,M,3,03,57,22,16,23,26,07,09,,,,,2.2,1.2,1.8*39
$GPGGA,091858.000,2729.2953,S,15300.4432,E,1,08,1.2,24.6,M,37.1,M,,0000*77
$GPGSA,M,3,03,57,22,16,23,26,09,07,,,,,2.2,1.2,1.8*39
$GPGSV,3,1,12,03,79,325,41,57,76,349,39,22,56,014,38,16,53,083,39*7E
$GPGSV,3,2,12,23,53,197,41,26,37,122,38,09,22,233,32,07,16,295,35*7E
$GPGSV,3,3,12,01,15,331,33,04,00,000,43,31,06,131,28,42,54,333,*74
$GPGGA,091859.000,2729.2954,S,15300.4426,E,1,08,1.2,24.8,M,37.1,M,,0000*7A
$GPGSA,M,3,03,57,22,16,23,26,09,07,,,,,2.2,1.2,1.8*39
$GPGGA,091900.000,2729.2955,S,15300.4420,E,1,08,1.2,24.9,M,37.1,M,,0000*71
$GPGSA,M,3,03,57,22,16,23,26,09,07,,,,,2.2,1.2,1.8*39
$GPGGA,091901.000,2729.2956,S,15300.4414,E,1,08,1.2,24.7,M,37.1,M,,0000*7A
$GPGSA,M,3,03,57,22,16,23,26,09,07,,,,,2.2,1.2,1.8*39
$GPGGA,091902.000,2729.2956,S,15300.4407,E,1,08,1.2,24.6,M,37.1,M,,0000*7A
$GPGSA,M,3,03,57,22,16,23,26,09,07,,,,,2.2,1.2,1.8*39
$GPGGA,091903.000,2729.2956,S,15300.4401,E,1,08,1.2,24.5,M,37.1,M,,0000*7E
$GPGSA,M,3,03,57,22,16,23,26,09,07,,,,,2.2,1.2,1.8*39
$GPGSV,3,1,12,03,79,325,44,57,76,349,41,22,56,014,42,16,53,083,37*77
$GPGSV,3,2,12,23,53,197,41,26,37,122,45,09,22,233,30,07,16,295,42*76
$GPGSV,3,3,12,01,15,331,18,31,06,131,24,42,54,333,30,14,06,087,*7D
$GPGGA,091904.000,2729.2957,S,15300.4395,E,1,08,1.2,24.4,M,37.1,M,,0000*73
$GPGSA,M,3,03,57,22,16,23,26,09,07,,,,,2.2,1.2,1.8*39
$GPGGA,091905.000,2729.2957,S,15300.4388,E,1,08,1.2,24.3,M,37.1,M,,0000*79
$GPGSA,M,3,03,57,22,16,23,26,09,07,,,,,2.2,1.2,1.8*39
$GPGGA,091906.000,2729.2957,S,15300.4383,E,1,08,1.2,24.3,M,37.1,M,,0000*71
$GPGSA,M,3,03,57,22,16,23,26,09,07,,,,,2.2,1.2,1.8*39
$GPGGA,091907.000,2729.2958,S,15300.4377,E,1,08,1.2,24.3,M,37.1,M,,0000*74
$GPGSA,M,3,03,57,22,16,23,26,09,07,,,,,2.2,1.2,1.8*39
$GPGGA,091908.000,2729.2959,S,15300.4372,E,1,08,1.2,24.3,M,37.1,M,,0000*7F
$GPGSA,M,3,03,57,22,16,23,26,09,07,,,,,2.2,1.2,1.8*39
$GPGSV,3,1,12,03,79,325,46,57,76,349,46,22,56,014,41,16,53,083,38*7E
$GPGSV,3,2,12,23,53,197,39,26,37,122,38,09,22,233,30,07,16,295,37*71
$GPGSV,3,3,12,01,15,331,19,31,06,131,22,58,00,000,39,42,54,333,*72
$GPGGA,091909.000,2729.2961,S,15300.4368,E,1,08,1.2,24.4,M,37.1,M,,0000*79
$GPGSA,M,3,03,57,22,16,23,26,09,07,,,,,2.2,1.2,1.8*39
$GPGGA,091910.000,2729.2964,S,15300.4364,E,1,08,1.2,24.3,M,37.1,M,,0000*7F
$GPGSA,M,3,03,57,22,16,23,26,09,07,,,,,2.2,1.2,1.8*39
$GPGGA,091911.000,2729.2964,S,15300.4364,E,1,08,1.2,24.3,M,37.1,M,,0000*7E
$GPGSA,M,3,03,57,22,16,23,26,09,07,,,,,2.2,1.2,1.8*39
$GPGGA,091912.000,2729.2964,S,15300.4364,E,1,08,1.2,24.3,M,37.1,M,,0000*7D
$GPGSA,M,3,03,57,22,16,23,26,09,07,,,,,2.2,1.2,1.8*39
$GPGGA,091913.000,2729.2964,S,15300.4364,E,1,08,1.2,24.3,M,37.1,M,,0000*7C
$GPGSA,M,3,03,57,22,16,23,26,09,07,,,,,2.2,1.2,1.8*39
$GPGSV,3,1,12,03,79,325,46,57,76,349,42,22,56,014,41,16,53,083,42*77
$GPGSV,3,2,12,23,53,197,40,26,37,122,39,09,22,233,36,07,16,295,36*79
$GPGSV,3,3,12,01,15,331,18,31,06,131,22,42,54,333,38,14,06,087,*73
$GPGGA,091914.000,2729.2964,S,15300.4364,E,1,08,1.2,24.3,M,37.1,M,,0000*7B
$GPGSA,M,3,03,57,22,16,23,26,09,07,,,,,2.2,1.2,1.8*39
$GPGGA,091915.000,2729.2964,S,15300.4364,E,1,08,1.2,24.3,M,37.1,M,,0000*7A
$GPGSA,M,3,03,57,22,16,23,26,09,07,,,,,2.2,1.2,1.8*39
$GPGGA,091916.000,2729.2964,S,15300.4364,E,1,08,1.2,24.3,M,37.1,M,,0000*79
$GPGSA,M,3,03,57,22,16,23,26,09,07,,,,,2.2,1.2,1.8*39
