$GPGGA,080614.919,2729.3088,S,15300.4310,E,1,04,4.7,21.1,M,37.1,M,,0000*77
$GPGSA,M,3,27,08,11,22,,,,,,,,,7.5,4.7,5.8*3F
$GPGGA,080615.919,2729.3086,S,15300.4310,E,1,04,4.7,21.5,M,37.1,M,,0000*7C
$GPGSA,M,3,27,08,11,22,,,,,,,,,7.5,4.7,5.8*3F
$GPGGA,080616.919,2729.3084,S,15300.4306,E,1,04,4.7,22.7,M,37.1,M,,0000*7B
$GPGSA,M,3,27,08,11,22,,,,,,,,,7.5,4.7,5.8*3F
$GPGSV,3,1,12,27,27,313,22,08,26,268,28,11,15,225,22,22,07,247,25*73
$GPGSV,3,2,12,10,45,126,22,31,36,016,18,32,66,171,19,42,54,333,*7D
$GPGSV,3,3,12,14,73,261,,57,66,229,,18,20,095,,21,11,037,*75
$GPGGA,080617.919,2729.3078,S,15300.4299,E,1,04,4.7,20.2,M,37.1,M,,0000*79
$GPGSA,M,3,27,08,11,22,,,,,,,,,7.5,4.7,5.8*3F
$GPGGA,080618.919,2729.3080,S,15300.4299,E,1,04,4.7,20.5,M,37.1,M,,0000*76
$GPGSA,M,3,27,08,11,22,,,,,,,,,7.5,4.7,5.8*3F
$GPGGA,080619.919,2729.3082,S,15300.4298,E,1,04,4.7,21.7,M,37.1,M,,0000*77
$GPGSA,M,3,27,08,11,22,,,,,,,,,7.5,4.7,5.8*3F
$GPGGA,080620.919,2729.3077,S,15300.4286,E,1,04,4.7,21.5,M,37.1,M,,0000*7A
$GPGSA,M,3,27,08,11,22,,,,,,,,,7.5,4.7,5.8*3F
$GPGGA,080621.919,2729.3076,S,15300.4282,E,1,04,4.7,21.8,M,37.1,M,,0000*73
$GPGSA,M,3,27,08,11,22,,,,,,,,,7.5,4.7,5.8*3F
$GPGSV,3,1,12,27,27,313,22,08,26,268,29,11,15,225,24,22,07,247,25*74
$GPGSV,3,2,12,01,06,219,21,10,45,126,22,31,36,016,17,32,66,171,19*78
$GPGSV,3,3,12,42,54,333,,14,73,261,,57,66,229,,18,20,095,*76
$GPGGA,080622.919,2729.3074,S,15300.4286,E,1,04,4.7,22.4,M,37.1,M,,0000*79
$GPGSA,M,3,27,08,11,22,,,,,,,,,7.5,4.7,5.8*3F
$GPGGA,080623.919,2729.3074,S,15300.4287,E,1,04,4.7,22.5,M,37.1,M,,0000*78
$GPGSA,M,3,27,08,11,22,,,,,,,,,7.5,4.7,5.8*3F
$GPGGA,080624.919,2729.3074,S,15300.4300,E,1,04,4.7,22.7,M,37.1,M,,0000*73
$GPGSA,M,3,27,08,11,22,,,,,,,,,7.5,4.7,5.8*3F
$GPGGA,080625.919,2729.3072,S,15300.4303,E,1,04,4.7,22.0,M,37.1,M,,0000*70
$GPGSA,M,3,27,08,11,22,,,,,,,,,7.5,4.7,5.8*3F
$GPGGA,080626.919,2729.3072,S,15300.4305,E,1,04,4.7,22.2,M,37.1,M,,0000*77
$GPGSA,M,3,27,08,11,22,,,,,,,,,7.5,4.7,5.8*3F
$GPGSV,3,1,12,27,27,313,22,08,26,268,29,11,15,225,24,22,07,247,26*77
$GPGSV,3,2,12,01,06,219,21,10,45,126,22,31,36,016,17,32,66,171,19*78
$GPGSV,3,3,12,42,54,333,,14,73,261,,57,66,229,,18,20,095,*76
$GPGGA,080627.919,2729.3075,S,15300.4305,E,1,04,4.7,22.0,M,37.1,M,,0000*73
$GPGSA,M,3,27,08,11,22,,,,,,,,,7.5,4.7,5.8*3F
$GPGGA,080628.919,2729.3078,S,15300.4303,E,1,04,4.7,21.5,M,37.1,M,,0000*71
$GPGSA,M,3,27,08,11,22,,,,,,,,,7.5,4.7,5.8*3F
$GPGGA,080629.919,2729.3080,S,15300.4308,E,1,04,4.7,21.5,M,37.1,M,,0000*7C
$GPGSA,M,3,27,08,11,22,,,,,,,,,7.5,4.7,5.8*3F
$GPGGA,080630.919,2729.3082,S,15300.4317,E,1,04,4.7,21.8,M,37.1,M,,0000*75
$GPGSA,M,3,27,08,11,22,,,,,,,,,7.5,4.7,5.8*3F
$GPGGA,080631.919,2729.3085,S,15300.4323,E,1,04,4.7,22.4,M,37.1,M,,0000*7B
$GPGSA,M,3,27,08,11,22,,,,,,,,,7.5,4.7,5.8*3F
$GPGSV,3,1,12,27,27,313,21,08,26,268,29,11,15,225,23,22,07,247,26*73
$GPGSV,3,2,12,01,06,219,21,10,45,126,21,31,36,016,16,32,66,171,18*7B
$GPGSV,3,3,12,42,54,333,,14,73,261,,57,66,229,,18,20,095,*76
$GPGGA,080632.919,2729.3086,S,15300.4329,E,1,04,4.7,22.5,M,37.1,M,,0000*70
$GPGSA,M,3,27,08,11,22,,,,,,,,,7.5,4.7,5.8*3F
$GPGGA,080633.919,2729.3086,S,15300.4323,E,1,04,4.7,22.5,M,37.1,M,,0000*7B
$GPGSA,M,3,27,08,11,22,,,,,,,,,7.5,4.7,5.8*3F
$GPGGA,080634.919,2729.3085,S,15300.4314,E,1,04,4.7,22.3,M,37.1,M,,0000*7D
$GPGSA,M,3,27,08,11,22,,,,,,,,,7.5,4.7,5.8*3F
$GPGGA,080635.919,2729.3084,S,15300.4309,E,1,04,4.7,22.3,M,37.1,M,,0000*71
$GPGSA,M,3,27,08,11,22,,,,,,,,,7.5,4.7,5.8*3F
$GPGGA,080636.919,2729.3083,S,15300.4308,E,1,04,4.7,22.1,M,37.1,M,,0000*76
$GPGSA,M,3,27,08,11,22,,,,,,,,,7.5,4.7,5.8*3F
$GPGSV,3,1,12,27,27,313,21,08,26,268,29,11,15,225,23,22,07,247,27*72
$GPGSV,3,2,12,01,06,219,21,10,45,126,21,31,36,016,18,32,66,171,16*7B
$GPGSV,3,3,12,36,00,000,,14,73,261,,57,66,229,,18,20,095,*77
$GPGGA,080637.919,2729.3083,S,15300.4297,E,1,04,4.7,21.8,M,37.1,M,,0000*7A
$GPGSA,M,3,27,08,11,22,,,,,,,,,7.5,4.7,5.8*3F
$GPGGA,080638.919,2729.3083,S,15300.4302,E,1,04,4.7,21.4,M,37.1,M,,0000*74
$GPGSA,M,3,27,08,11,22,,,,,,,,,7.5,4.7,5.8*3F
$GPGGA,080639.919,2729.3084,S,15300.4305,E,1,04,4.7,21.4,M,37.1,M,,0000*75
$GPGSA,M,3,27,08,11,22,,,,,,,,,7.5,4.7,5.8*3F
$GPGGA,080640.919,2729.3085,S,15300.4302,E,1,04,4.7,21.6,M,37.1,M,,0000*7F
$GPGSA,M,3,27,08,11,22,,,,,,,,,7.5,4.7,5.8*3F
$GPGGA,080641.919,2729.3084,S,15300.4296,E,1,04,4.7,21.5,M,37.1,M,,0000*70
$GPGSA,M,3,27,08,11,22,,,,,,,,,7.5,4.7,5.8*3F
$GPGSV,3,1,12,27,27,313,21,08,26,268,29,11,15,225,24,22,07,247,27*75
$GPGSV,3,2,12,01,06,219,21,10,45,126,21,31,36,016,19,32,66,171,15*79
$GPGSV,3,3,12,36,00,000,,14,73,261,,57,66,229,,18,20,095,*77
$GPGGA,080642.919,2729.3086,S,15300.4291,E,1,04,4.7,21.5,M,37.1,M,,0000*76
$GPGSA,M,3,27,08,11,22,,,,,,,,,7.5,4.7,5.8*3F
$GPGGA,080643.919,2729.3087,S,15300.4286,E,1,04,4.7,21.5,M,37.1,M,,0000*70
$GPGSA,M,3,27,08,11,22,,,,,,,,,7.5,4.7,5.8*3F
$GPGGA,080644.919,2729.3087,S,15300.4283,E,1,04,4.7,21.1,M,37.1,M,,0000*76
$GPGSA,M,3,27,08,11,22,,,,,,,,,7.5,4.7,5.9*3E
$GPGGA,080645.919,2729.3088,S,15300.4284,E,1,04,4.7,21.0,M,37.1,M,,0000*7E
$GPGSA,M,3,27,08,11,22,,,,,,,,,7.5,4.7,5.9*3E
$GPGGA,080646.919,2729.3087,S,15300.4287,E,1,04,4.7,20.9,M,37.1,M,,0000*79
$GPGSA,M,3,27,08,11,22,,,,,,,,,7.5,4.7,5.9*3E
$GPGSV,3,1,12,27,27,313,21,08,26,268,29,11,15,225,24,22,07,247,28*7A
$GPGSV,3,2,12,01,06,219,22,10,45,126,21,31,36,016,20,32,66,171,13*76
$GPGSV,3,3,12,36,00,000,,14,73,261,,57,66,229,,18,20,095,*77
$GPGGA,080647.919,2729.3085,S,15300.4281,E,1,04,4.7,20.7,M,37.1,M,,0000*72
$GPGSA,M,3,27,08,11,22,,,,,,,,,7.5,4.7,5.9*3E
$GPGGA,080648.919,2729.3086,S,15300.4281,E,1,04,4.7,20.7,M,37.1,M,,0000*7E
$GPGSA,M,3,27,08,11,22,,,,,,,,,7.5,4.7,5.9*3E
$GPGGA,080649.919,2729.3085,S,15300.4277,E,1,04,4.7,20.5,M,37.1,M,,0000*77
$GPGSA,M,3,27,08,11,22,,,,,,,,,7.5,4.7,5.9*3E
$GPGGA,080650.919,2729.3082,S,15300.4270,E,1,04,4.7,20.0,M,37.1,M,,0000*7A
$GPGSA,M,3,27,08,11,22,,,,,,,,,7.5,4.7,5.9*3E
$GPGGA,080651.919,2729.3081,S,15300.4275,E,1,04,4.7,19.6,M,37.1,M,,0000*71
$GPGSA,M,3,27,08,11,22,,,,,,,,,7.5,4.7,5.9*3E
$GPGSV,3,1,12,27,27,313,21,08,26,268,28,11,15,225,25,22,07,247,28*7A
$GPGSV,3,2,12,01,06,219,22,10,45,126,21,31,36,016,21,36,00,000,*76
$GPGSV,3,3,12,14,73,261,,32,66,171,,57,66,229,,18,20,095,*74
$GPGGA,080652.919,2729.3076,S,15300.4276,E,1,04,4.7,19.3,M,37.1,M,,0000*7C
$GPGSA,M,3,27,08,11,22,,,,,,,,,7.5,4.7,5.9*3E
$GPGGA,080653.919,2729.3072,S,15300.4273,E,1,04,4.7,18.8,M,37.1,M,,0000*76
$GPGSA,M,3,27,08,11,22,,,,,,,,,7.5,4.7,5.9*3E
$GPGGA,080654.919,2729.3068,S,15300.4282,E,1,04,4.7,18.5,M,37.1,M,,0000*79
$GPGSA,M,3,27,08,11,22,,,,,,,,,7.5,4.7,5.9*3E
$GPGGA,080655.919,2729.3067,S,15300.4282,E,1,04,4.7,18.3,M,37.1,M,,0000*71
$GPGSA,M,3,27,08,11,22,,,,,,,,,7.5,4.7,5.9*3E
$GPGGA,080656.919,2729.3064,S,15300.4285,E,1,04,4.7,18.1,M,37.1,M,,0000*74
$GPGSA,M,3,27,08,11,22,,,,,,,,,7.5,4.7,5.9*3E
$GPGSV,3,1,12,27,27,313,21,08,26,268,29,11,15,225,25,22,07,247,28*7B
$GPGSV,3,2,12,01,06,219,22,10,45,126,21,31,36,016,21,36,00,000,*76
$GPGSV,3,3,12,14,73,261,,32,66,171,,57,66,229,,18,20,095,*74
$GPGGA,080657.919,2729.3061,S,15300.4295,E,1,04,4.7,17.9,M,37.1,M,,0000*76
$GPGSA,M,3,27,08,11,22,,,,,,,,,7.5,4.7,5.9*3E
$GPGGA,080658.919,2729.3061,S,15300.4311,E,1,04,4.7,18.0,M,37.1,M,,0000*72
$GPGSA,M,3,27,08,11,22,,,,,,,,,7.5,4.7,5.9*3E
$GPGGA,080810.919,2729.3068,S,15300.4186,E,1,04,4.7,25.7,M,37.1,M,,0000*7C
$GPGSA,M,3,08,27,11,22,,,,,,,,,7.6,4.7,6.0*37
$GPGGA,080811.919,2729.3067,S,15300.4172,E,1,04,4.7,26.0,M,37.1,M,,0000*7D
$GPGSA,M,3,08,27,11,22,,,,,,,,,7.6,4.7,6.0*37
$GPGSV,3,1,12,08,26,270,25,27,26,314,24,11,16,225,21,22,08,246,30*7D
$GPGSV,3,2,12,01,08,219,26,10,45,124,24,31,38,017,14,45,00,000,*76
$GPGSV,3,3,12,14,73,255,,57,66,228,,32,64,169,,18,19,093,*75
$GPGGA,080812.919,2729.3065,S,15300.4181,E,1,04,4.7,26.1,M,37.1,M,,0000*71
$GPGSA,M,3,08,27,11,22,,,,,,,,,7.6,4.7,6.0*37
$GPGGA,080813.919,2729.3060,S,15300.4166,E,1,04,4.7,26.2,M,37.1,M,,0000*7F
$GPGSA,M,3,08,27,11,22,,,,,,,,,7.6,4.7,6.0*37
$GPGGA,080814.919,2729.3058,S,15300.4165,E,1,04,4.7,26.3,M,37.1,M,,0000*71
$GPGSA,M,3,08,27,11,22,,,,,,,,,7.6,4.7,6.0*37
$GPGGA,080815.919,2729.3053,S,15300.4155,E,1,04,4.7,26.5,M,37.1,M,,0000*7E
$GPGSA,M,3,08,27,11,22,,,,,,,,,7.6,4.7,6.0*37
$GPGGA,080816.919,2729.3051,S,15300.4151,E,1,04,4.7,26.5,M,37.1,M,,0000*7B
$GPGSA,M,3,08,27,11,22,,,,,,,,,7.7,4.7,6.0*36
$GPGSV,3,1,12,08,26,271,24,27,26,314,25,11,16,225,21,22,08,245,30*7F
$GPGSV,3,2,12,01,08,219,26,10,45,123,25,31,38,017,13,45,00,000,*77
$GPGSV,3,3,12,14,73,254,,57,66,228,,32,64,169,,18,19,093,*74
$GPGGA,080817.919,2729.3050,S,15300.4149,E,1,04,4.7,26.5,M,37.1,M,,0000*72
$GPGSA,M,3,08,27,11,22,,,,,,,,,7.7,4.7,6.0*36
$GPGGA,080818.919,2729.3048,S,15300.4143,E,1,04,4.7,26.5,M,37.1,M,,0000*7E
$GPGSA,M,3,08,27,11,22,,,,,,,,,7.7,4.7,6.0*36
$GPGGA,080819.919,2729.3051,S,15300.4145,E,1,04,4.7,26.5,M,37.1,M,,0000*71
$GPGSA,M,3,08,27,11,22,,,,,,,,,7.7,4.7,6.0*36
$GPGGA,080820.919,2729.3051,S,15300.4144,E,1,04,4.7,26.6,M,37.1,M,,0000*79
$GPGSA,M,3,08,27,11,22,,,,,,,,,7.7,4.7,6.0*36
$GPGGA,080821.919,2729.3051,S,15300.4149,E,1,04,4.7,26.6,M,37.1,M,,0000*75
$GPGSA,M,3,08,27,11,22,,,,,,,,,7.7,4.7,6.0*36
$GPGSV,3,1,12,08,26,271,23,27,26,314,25,11,16,225,21,22,08,245,30*78
$GPGSA,M,3,10,08,27,11,01,22,,,,,,,5.9,2.1,5.5*3C
$GPGGA,081517.000,2729.2940,S,15300.4356,E,1,06,2.1,24.9,M,37.1,M,,0000*76
$GPGSA,M,3,10,08,27,11,01,22,,,,,,,5.9,2.1,5.5*3C
$GPGSV,3,1,12,10,43,119,38,08,25,274,39,27,23,317,25,11,19,227,31*73
$GPGSV,3,2,12,01,10,218,31,22,10,243,34,14,73,241,44,21,07,035,20*77
$GPGSV,3,3,12,31,41,018,42,32,61,165,38,57,66,226,35,40,00,000,*7B
$GPGGA,081518.000,2729.2940,S,15300.4356,E,1,06,2.1,24.9,M,37.1,M,,0000*79
$GPGSA,M,3,10,08,27,11,01,22,,,,,,,5.9,2.1,5.5*3C
$GPGGA,081519.000,2729.2940,S,15300.4356,E,1,07,1.6,24.9,M,37.1,M,,0000*7D
$GPGSA,M,3,10,08,27,11,01,22,32,,,,,,3.2,1.6,2.8*3E
$GPGGA,081520.000,2729.2940,S,15300.4356,E,1,07,1.6,24.9,M,37.1,M,,0000*77
$GPGSA,M,3,32,10,08,27,11,01,22,,,,,,3.2,1.6,2.8*3E
$GPGGA,081521.000,2729.2940,S,15300.4356,E,1,07,1.6,24.9,M,37.1,M,,0000*76
$GPGSA,M,3,32,10,08,27,11,01,22,,,,,,3.2,1.6,2.8*3E
$GPGGA,081522.000,2729.2940,S,15300.4356,E,1,07,1.6,24.9,M,37.1,M,,0000*75
$GPGSA,M,3,32,10,08,27,11,01,22,,,,,,3.2,1.6,2.8*3E
$GPGSV,3,1,12,32,61,165,38,10,43,119,38,08,25,274,39,27,23,317,21*75
$GPGSV,3,2,12,11,19,227,32,01,11,218,31,22,10,243,34,14,73,241,44*78
$GPGSV,3,3,12,21,07,035,20,31,41,018,41,57,66,226,35,40,00,000,*77
$GPGGA,081523.000,2729.2940,S,15300.4356,E,1,07,1.6,24.9,M,37.1,M,,0000*74
$GPGSA,M,3,32,10,08,27,11,01,22,,,,,,3.2,1.6,2.8*3E
$GPGGA,081524.000,2729.2943,S,15300.4327,E,1,07,1.6,33.0,M,37.1,M,,0000*79
$GPGSA,M,3,32,10,08,27,11,01,22,,,,,,3.2,1.6,2.8*3E
$GPGGA,081525.000,2729.2943,S,15300.4323,E,1,07,1.6,32.6,M,37.1,M,,0000*7B
$GPGSA,M,3,32,10,08,27,11,01,22,,,,,,3.2,1.6,2.8*3E
$GPGGA,081526.000,2729.2942,S,15300.4316,E,1,07,1.6,32.3,M,37.1,M,,0000*7A
$GPGSA,M,3,32,10,08,27,11,01,22,,,,,,3.2,1.6,2.8*3E
$GPGGA,081527.000,2729.2943,S,15300.4304,E,1,07,1.6,32.4,M,37.1,M,,0000*7E
$GPGSA,M,3,32,10,08,27,11,01,22,,,,,,3.2,1.6,2.8*3E
$GPGSV,3,1,12,32,61,165,38,10,43,119,38,08,25,274,35,27,23,317,30*79
$GPGSV,3,2,12,11,19,227,32,01,11,218,27,22,10,243,34,14,73,241,38*74
$GPGSV,3,3,12,21,07,035,21,31,41,018,40,57,66,226,35,40,00,000,*77
$GPGGA,081528.000,2729.2941,S,15300.4289,E,1,07,1.6,31.9,M,37.1,M,,0000*79
$GPGSA,M,3,32,10,08,27,11,01,22,,,,,,3.2,1.6,2.8*3E
$GPGGA,081529.000,2729.2939,S,15300.4268,E,1,07,1.6,31.7,M,37.1,M,,0000*76
$GPGSA,M,3,32,10,08,27,11,01,22,,,,,,3.2,1.6,2.8*3E
$GPGGA,081530.000,2729.2939,S,15300.4243,E,1,07,1.6,31.6,M,37.1,M,,0000*76
$GPGSA,M,3,32,10,08,27,11,01,22,,,,,,3.2,1.6,2.8*3E
$GPGGA,081531.000,2729.2953,S,15300.4210,E,1,09,1.1,33.2,M,37.1,M,,0000*72
$GPGSA,M,3,32,10,08,27,11,01,22,14,31,,,,2.1,1.1,1.8*3F
$GPGGA,081532.000,2729.2960,S,15300.4185,E,1,09,1.1,31.8,M,37.1,M,,0000*76
$GPGSA,M,3,14,32,10,31,08,27,11,01,22,,,,2.1,1.1,1.8*3F
$GPGSV,3,1,12,14,73,240,41,32,61,165,44,10,43,119,33,31,41,018,41*7A
$GPGSV,3,2,12,08,25,274,37,27,23,317,28,11,19,227,28,01,11,218,26*71
$GPGSV,3,3,12,22,10,243,28,21,07,035,16,57,66,226,37,40,00,000,*75
$GPGGA,081533.000,2729.2967,S,15300.4162,E,1,09,1.1,30.0,M,37.1,M,,0000*70
$GPGSA,M,3,14,32,10,31,08,27,11,01,22,,,,2.1,1.1,1.8*3F
$GPGGA,081534.000,2729.2971,S,15300.4144,E,1,09,1.1,28.5,M,37.1,M,,0000*78
$GPGSA,M,3,14,32,10,31,08,27,11,01,22,,,,2.1,1.1,1.8*3F
$GPGGA,081535.000,2729.2973,S,15300.4133,E,1,09,1.1,27.7,M,37.1,M,,0000*76
$GPGSA,M,3,14,32,10,31,08,27,11,01,22,,,,2.1,1.1,1.8*3F
$GPGGA,081536.000,2729.2974,S,15300.4124,E,1,09,1.1,26.7,M,37.1,M,,0000*75
$GPGSA,M,3,14,32,10,31,08,27,11,01,22,,,,2.1,1.1,1.8*3F
$GPGGA,081537.000,2729.2976,S,15300.4111,E,1,09,1.1,26.1,M,37.1,M,,0000*76
$GPGSA,M,3,14,32,10,31,08,27,11,01,22,,,,2.1,1.1,1.8*3F
$GPGSV,3,1,12,14,73,240,41,32,61,165,46,10,43,119,34,31,41,018,30*79
$GPGSV,3,2,12,08,25,274,36,27,23,317,38,11,19,227,28,01,11,218,24*73
$GPGSV,3,3,12,22,10,243,29,21,07,035,15,57,66,226,40,41,00,000,*76
$GPGGA,081538.000,2729.2980,S,15300.4091,E,1,09,1.1,25.1,M,37.1,M,,0000*7A
$GPGSA,M,3,14,32,10,31,08,27,11,01,22,,,,2.1,1.1,1.8*3F
$GPGGA,081539.000,2729.2985,S,15300.4065,E,1,09,1.1,24.4,M,37.1,M,,0000*71
$GPGSA,M,3,14,32,10,31,08,27,11,01,22,,,,2.1,1.1,1.8*3F
$GPGGA,081540.000,2729.2991,S,15300.4032,E,1,09,1.1,23.9,M,37.1,M,,0000*72
$GPGSA,M,3,14,32,10,31,08,27,11,01,22,,,,2.1,1.1,1.8*3F
$GPGGA,081541.000,2729.2999,S,15300.3995,E,1,09,1.1,23.4,M,37.1,M,,0000*75
$GPGSA,M,3,14,32,10,31,08,27,11,01,22,,,,2.1,1.1,1.8*3F
$GPGGA,081542.000,2729.3008,S,15300.3955,E,1,09,1.1,22.8,M,37.1,M,,0000*77
$GPGSA,M,3,14,32,10,31,08,27,11,01,22,,,,2.1,1.1,1.8*3F
$GPGSV,3,1,12,14,73,240,42,32,61,165,46,10,43,119,35,31,41,018,25*7F
$GPGSV,3,2,12,08,25,274,36,27,23,317,38,11,19,227,26,01,11,218,24*7D
$GPGSV,3,3,12,22,10,243,30,21,07,035,13,57,66,226,41,41,00,000,*79
$GPGGA,081543.000,2729.3018,S,15300.3912,E,1,09,1.1,22.3,M,37.1,M,,0000*7F
$GPGSA,M,3,14,32,10,31,08,27,11,01,22,,,,2.1,1.1,1.8*3F
$GPGGA,081544.000,2729.3028,S,15300.3867,E,1,09,1.1,21.9,M,37.1,M,,0000*71
$GPGSA,M,3,14,32,10,31,08,27,11,01,22,,,,2.1,1.1,1.8*3F
$GPGGA,081545.000,2729.3035,S,15300.3820,E,1,09,1.1,21.9,M,37.1,M,,0000*7F
$GPGSA,M,3,14,32,10,31,08,27,11,01,22,,,,2.1,1.1,1.8*3F
$GPGGA,081546.000,2729.3039,S,15300.3770,E,1,09,1.1,21.8,M,37.1,M,,0000*7B
$GPGSA,M,3,14,32,10,31,08,27,11,01,22,,,,2.1,1.1,1.8*3F
$GPGGA,081547.000,2729.3037,S,15300.3719,E,1,09,1.1,21.7,M,37.1,M,,0000*74
$GPGSA,M,3,14,32,10,31,08,27,11,01,22,,,,2.1,1.1,1.8*3F
$GPGSV,3,1,12,14,73,240,41,32,61,165,35,10,43,119,40,31,41,018,37*79
$GPGSV,3,2,12,08,25,274,36,27,23,317,33,11,19,227,27,01,11,218,20*73
$GPGSV,3,3,12,22,10,243,25,57,66,226,34,41,00,000,,18,18,090,*76
$GPGGA,081548.000,2729.3032,S,15300.3667,E,1,09,1.1,21.6,M,37.1,M,,0000*77
$GPGSA,M,3,14,32,10,31,08,27,11,01,22,,,,2.1,1.1,1.8*3F
$GPGGA,081549.000,2729.3026,S,15300.3616,E,1,09,1.1,21.5,M,37.1,M,,0000*76
$GPGSA,M,3,14,32,10,31,08,27,11,01,22,,,,2.1,1.1,1.8*3F
$GPGGA,081550.000,2729.3019,S,15300.3566,E,1,09,1.1,21.3,M,37.1,M,,0000*70
$GPGSA,M,3,14,32,10,31,08,27,11,01,22,,,,2.1,1.1,1.8*3F
$GPGGA,081551.000,2729.3012,S,15300.3517,E,1,09,1.1,20.9,M,37.1,M,,0000*77
$GPGSA,M,3,14,32,10,31,08,27,11,01,22,,,,2.1,1.1,1.8*3F
$GPGGA,081552.000,2729.3005,S,15300.3468,E,1,09,1.1,20.6,M,37.1,M,,0000*74
$GPGSA,M,3,14,32,10,31,08,27,11,01,22,,,,2.1,1.1,1.8*3F
$GPGSV,3,1,12,14,73,240,41,32,61,165,34,10,43,119,43,31,41,018,37*7B
$GPGSV,3,2,12,08,25,274,38,27,23,317,39,11,19,227,27,01,11,218,24*73
$GPGSV,3,3,12,22,10,243,25,57,66,226,35,41,00,000,,18,18,090,*77
$GPGGA,081553.000,2729.2997,S,15300.3416,E,1,09,1.1,20.0,M,37.1,M,,0000*79
$GPGSA,M,3,14,32,10,31,08,27,11,01,22,,,,2.1,1.1,1.8*3F
$GPGGA,081554.000,2729.2988,S,15300.3364,E,1,09,1.1,19.3,M,37.1,M,,0000*7B
$GPGSA,M,3,14,32,10,31,08,27,11,01,22,,,,2.1,1.1,1.8*3F
$GPGGA,081555.000,2729.2979,S,15300.3310,E,1,09,1.1,18.6,M,37.1,M,,0000*73
$GPGSA,M,3,14,32,10,31,08,27,11,01,22,,,,2.1,1.1,1.8*3F
$GPGGA,081556.000,2729.2971,S,15300.3258,E,1,09,1.1,17.8,M,37.1,M,,0000*74
$GPGSA,M,3,14,32,10,31,08,27,11,01,22,,,,2.1,1.1,1.8*3F
$GPGGA,081557.000,2729.2964,S,15300.3207,E,1,09,1.1,16.7,M,37.1,M,,0000*75
$GPGSA,M,3,14,32,10,31,08,27,11,01,22,,,,2.1,1.1,1.8*3F
$GPGSV,3,1,12,14,73,240,42,32,61,165,40,10,43,119,43,31,41,018,38*74
$GPGSV,3,2,12,08,25,274,42,27,23,317,40,11,19,227,26,01,11,218,31*75
$GPGSV,3,3,12,22,10,243,24,57,66,226,43,41,00,000,,18,18,090,*77
$GPGGA,081558.000,2729.2957,S,15300.3162,E,1,09,1.1,15.7,M,37.1,M,,0000*79
$GPGSA,M,3,14,32,10,31,08,27,11,01,22,,,,2.1,1.1,1.8*3F
$GPGGA,081559.000,2729.2951,S,15300.3120,E,1,09,1.1,14.6,M,37.1,M,,0000*78
$GPGSA,M,3,14,32,10,31,08,27,11,01,22,,,,2.1,1.1,1.8*3F
$GPGGA,081600.000,2729.2945,S,15300.3085,E,1,09,1.1,13.7,M,37.1,M,,0000*7A
$GPGSA,M,3,14,32,10,31,08,27,11,01,22,,,,2.1,1.1,1.8*3F
$GPGGA,081601.000,2729.2941,S,15300.3052,E,1,10,1.1,13.0,M,37.1,M,,0000*7A
$GPGSA,M,3,14,32,10,31,08,27,11,01,22,57,,,1.8,1.1,1.5*3A
$GPGGA,081602.000,2729.2936,S,15300.3019,E,1,10,1.1,12.2,M,37.1,M,,0000*75
$GPGSA,M,3,14,57,32,10,31,08,27,11,01,22,,,1.8,1.1,1.5*3A
$GPGSV,3,1,12,14,73,239,42,57,65,225,43,32,61,165,39,10,43,119,42*73
$GPGSV,3,2,12,31,41,018,40,08,25,274,41,27,23,317,35,11,19,227,26*76
$GPGSV,3,3,12,01,11,218,25,22,10,243,26,41,00,000,29,18,17,090,*7F
$GPGGA,081603.000,2729.2930,S,15300.2981,E,1,10,1.1,11.6,M,37.1,M,,0000*7C
$GPGSA,M,3,14,57,32,10,31,08,27,11,01,22,,,1.8,1.1,1.5*3A
$GPGGA,081604.000,2729.2924,S,15300.2938,E,1,10,1.1,11.0,M,37.1,M,,0000*7A
$GPGSA,M,3,14,57,32,10,31,08,27,11,01,22,,,1.8,1.1,1.5*3A
$GPGGA,081605.000,2729.2919,S,15300.2890,E,1,10,1.1,10.5,M,37.1,M,,0000*72
$GPGSA,M,3,14,57,32,10,31,08,27,11,01,22,,,1.8,1.1,1.5*3A
$GPGGA,081606.000,2729.2913,S,15300.2839,E,1,10,1.1,10.3,M,37.1,M,,0000*7E
$GPGSA,M,3,14,57,32,10,31,08,27,11,01,22,,,1.8,1.1,1.5*3A
$GPGGA,081607.000,2729.2907,S,15300.2787,E,1,10,1.1,10.4,M,37.1,M,,0000*77
$GPGSA,M,3,14,57,32,10,31,08,27,11,01,22,,,1.8,1.1,1.5*3A
$GPGSV,3,1,12,14,73,239,41,57,65,225,34,32,61,165,31,10,43,119,42*78
$GPGSV,3,2,12,31,42,019,29,08,25,275,35,27,23,317,29,11,19,227,27*75
$GPGSV,3,3,12,01,11,218,26,22,10,243,24,41,00,000,26,18,17,090,*71
$GPGGA,081608.000,2729.2901,S,15300.2737,E,1,10,1.1,10.5,M,37.1,M,,0000*74
$GPGSA,M,3,14,57,32,10,31,08,27,11,01,22,,,1.8,1.1,1.5*3A
$GPGGA,081609.000,2729.2894,S,15300.2691,E,1,10,1.1,10.7,M,37.1,M,,0000*77
$GPGSA,M,3,14,57,32,10,31,08,27,11,01,22,,,1.8,1.1,1.5*3A
$GPGGA,081610.000,2729.2888,S,15300.2651,E,1,10,1.1,11.0,M,37.1,M,,0000*78
$GPGSA,M,3,14,57,32,10,31,08,27,11,01,22,,,1.8,1.1,1.5*3A
$GPGGA,081611.000,2729.2882,S,15300.2617,E,1,10,1.1,11.1,M,37.1,M,,0000*70
$GPGSA,M,3,14,57,32,10,31,08,27,11,01,22,,,1.8,1.1,1.5*3A
$GPGGA,081612.000,2729.2878,S,15300.2586,E,1,10,1.1,11.4,M,37.1,M,,0000*78
$GPGSA,M,3,14,57,32,10,31,08,27,11,01,22,,,1.8,1.1,1.5*3A
$GPGSV,3,1,12,14,73,239,34,57,65,225,37,32,61,165,34,10,43,119,36*7F
$GPGSV,3,2,12,31,42,019,37,08,25,275,33,27,23,317,31,11,19,227,27*75
$GPGSV,3,3,12,01,11,218,20,22,10,243,18,21,07,035,25,42,54,333,31*7C
$GPGGA,081613.000,2729.2872,S,15300.2554,E,1,10,1.1,11.5,M,37.1,M,,0000*7D
$GPGSA,M,3,14,57,32,10,31,08,27,11,01,22,,,1.8,1.1,1.5*3A
$GPGGA,081614.000,2729.2868,S,15300.2518,E,1,10,1.1,11.9,M,37.1,M,,0000*75
$GPGSA,M,3,14,57,32,10,31,08,27,11,01,22,,,1.8,1.1,1.5*3A
$GPGGA,081615.000,2729.2861,S,15300.2479,E,1,10,1.1,12.3,M,37.1,M,,0000*72
$GPGSA,M,3,14,57,32,10,31,08,27,11,01,22,,,1.8,1.1,1.5*3A
$GPGGA,081616.000,2729.2850,S,15300.2440,E,1,10,1.1,12.7,M,37.1,M,,0000*7D
$GPGSA,M,3,14,57,32,10,31,08,27,11,01,22,,,1.8,1.1,1.5*3A
$GPGGA,081617.000,2729.2842,S,15300.2406,E,1,10,1.1,13.0,M,37.1,M,,0000*7B
$GPGSA,M,3,14,57,32,10,31,08,27,11,01,22,,,1.8,1.1,1.5*3A
$GPGSV,3,1,12,14,73,239,36,57,65,225,37,32,61,165,40,10,43,119,35*7D
$GPGSV,3,2,12,31,42,019,32,08,25,275,36,27,23,317,33,11,19,227,34*75
$GPGSV,3,3,12,01,11,218,24,22,10,243,25,21,07,035,21,42,54,333,36*75
$GPGGA,081618.000,2729.2837,S,15300.2380,E,1,10,1.1,13.7,M,37.1,M,,0000*78
$GPGSA,M,3,14,57,32,10,31,08,27,11,01,22,,,1.8,1.1,1.5*3A
$GPGGA,081619.000,2729.2833,S,15300.2362,E,1,10,1.1,14.3,M,37.1,M,,0000*72
$GPGSA,M,3,14,57,32,10,31,08,27,11,01,22,,,1.9,1.1,1.5*3B
$GPGGA,081620.000,2729.2831,S,15300.2348,E,1,10,1.1,14.9,M,37.1,M,,0000*78
$GPGSA,M,3,14,57,32,10,31,08,27,11,01,22,,,1.9,1.1,1.5*3B
$GPGGA,081621.000,2729.2831,S,15300.2330,E,1,10,1.1,15.4,M,37.1,M,,0000*7A
$GPGSA,M,3,14,57,32,10,31,08,27,11,01,22,,,1.9,1.1,1.5*3B
$GPGGA,081622.000,2729.2832,S,15300.2308,E,1,10,1.1,15.7,M,37.1,M,,0000*72
$GPGSA,M,3,14,57,32,10,31,08,27,11,01,22,,,1.9,1.1,1.5*3B
$GPGSV,3,1,12,14,73,239,44,57,65,225,43,32,61,165,41,10,43,119,36*79
$GPGSV,3,2,12,31,42,019,43,08,25,275,36,27,23,317,42,11,19,227,34*75
$GPGSV,3,3,12,01,11,218,34,22,10,243,22,21,07,035,21,42,54,333,35*70
$GPGGA,081623.000,2729.2831,S,15300.2279,E,1,10,1.1,16.2,M,37.1,M,,0000*71
$GPGSA,M,3,14,57,32,10,31,08,27,11,01,22,,,1.9,1.1,1.5*3B
$GPGGA,081624.000,2729.2827,S,15300.2242,E,1,10,1.1,16.3,M,37.1,M,,0000*78
$GPGSA,M,3,14,57,32,10,31,08,27,11,01,22,,,1.9,1.1,1.5*3B
$GPGGA,081625.000,2729.2818,S,15300.2200,E,1,10,1.1,16.7,M,37.1,M,,0000*77
$GPGSA,M,3,14,57,32,10,31,08,27,11,01,22,,,1.9,1.1,1.5*3B
$GPGGA,081626.000,2729.2807,S,15300.2155,E,1,10,1.1,16.9,M,37.1,M,,0000*77
$GPGSA,M,3,14,57,32,10,31,08,27,11,01,22,,,1.9,1.1,1.5*3B
$GPGGA,081627.000,2729.2796,S,15300.2107,E,1,10,1.1,17.2,M,37.1,M,,0000*7C
$GPGSA,M,3,14,57,32,10,31,08,27,11,01,22,,,1.9,1.1,1.5*3B
$GPGSV,3,1,12,14,73,239,43,57,65,225,38,32,61,165,43,10,43,119,35*73
$GPGSV,3,2,12,31,42,019,41,08,25,275,37,27,23,317,42,11,19,227,27*74
$GPGSV,3,3,12,01,11,218,23,22,10,243,21,21,07,035,25,42,54,333,30*74
$GPGGA,081628.000,2729.2785,S,15300.2055,E,1,09,1.1,17.4,M,37.1,M,,0000*79
$GPGSA,M,3,14,57,32,10,31,08,27,11,01,,,,1.9,1.1,1.6*38
$GPGGA,081629.000,2729.2774,S,15300.1999,E,1,09,1.1,17.6,M,37.1,M,,0000*7E
$GPGSA,M,3,14,57,32,10,31,08,27,11,22,,,,2.0,1.1,1.7*32
$GPGGA,081630.000,2729.2763,S,15300.1941,E,1,09,1.1,18.2,M,37.1,M,,0000*7E
$GPGSA,M,3,14,57,32,10,31,08,27,11,22,,,,2.0,1.1,1.7*32
$GPGGA,081631.000,2729.2754,S,15300.1883,E,1,10,1.1,18.4,M,37.1,M,,0000*7A
$GPGSA,M,3,14,57,32,10,31,08,27,11,01,22,,,1.9,1.1,1.5*3B
$GPGGA,081632.000,2729.2745,S,15300.1827,E,1,10,1.1,18.6,M,37.1,M,,0000*75
$GPGSA,M,3,14,57,32,10,31,08,27,11,01,22,,,1.9,1.1,1.5*3B
$GPGSV,3,1,12,14,73,239,42,57,65,225,37,32,61,165,44,10,43,119,32*7D
$GPGSV,3,2,12,31,42,019,42,08,25,275,37,27,23,317,41,11,19,227,35*77
$GPGSV,3,3,12,01,11,218,25,22,10,243,27,21,07,035,19,42,54,333,35*7E
$GPGGA,081633.000,2729.2736,S,15300.1773,E,1,10,1.1,18.7,M,37.1,M,,0000*7F
$GPGSA,M,3,14,57,32,10,31,08,27,11,01,22,,,1.9,1.1,1.5*3B
$GPGGA,081634.000,2729.2728,S,15300.1719,E,1,10,1.1,18.7,M,37.1,M,,0000*7B
$GPGSA,M,3,14,57,32,10,31,08,27,11,01,22,,,1.9,1.1,1.5*3B
$GPGGA,081635.000,2729.2721,S,15300.1667,E,1,10,1.1,18.6,M,37.1,M,,0000*7A
$GPGSA,M,3,14,57,32,10,31,08,27,11,01,22,,,1.9,1.1,1.5*3B
$GPGGA,081636.000,2729.2715,S,15300.1617,E,1,10,1.1,18.4,M,37.1,M,,0000*7B
$GPGSA,M,3,14,57,32,10,31,08,27,11,01,22,,,1.9,1.1,1.5*3B
$GPGGA,081637.000,2729.2711,S,15300.1571,E,1,10,1.1,18.3,M,37.1,M,,0000*7A
$GPGSA,M,3,14,57,32,10,31,08,27,11,01,22,,,1.9,1.1,1.5*3B
$GPGSV,3,1,12,14,73,238,42,57,65,225,36,32,61,165,44,10,43,118,34*7A
$GPGSV,3,2,12,31,42,019,44,08,25,275,37,27,23,317,43,11,19,227,30*76
$GPGSV,3,3,12,01,11,218,32,22,11,243,32,21,06,035,18,42,56,343,35*78
$GPGGA,081638.000,2729.2708,S,15300.1532,E,1,10,1.1,18.2,M,37.1,M,,0000*7B
$GPGSA,M,3,14,57,32,10,31,08,27,11,01,22,,,1.9,1.1,1.5*3B
$GPGGA,081639.000,2729.2709,S,15300.1496,E,1,10,1.1,18.2,M,37.1,M,,0000*74
$GPGSA,M,3,14,57,32,10,31,08,27,11,01,22,,,1.9,1.1,1.5*3B
$GPGGA,081640.000,2729.2709,S,15300.1460,E,1,10,1.1,18.2,M,37.1,M,,0000*73
$GPGSA,M,3,14,57,32,10,31,08,27,11,01,22,,,1.9,1.1,1.5*3B
$GPGGA,081641.000,2729.2705,S,15300.1421,E,1,10,1.1,18.2,M,37.1,M,,0000*7B
$GPGSA,M,3,14,57,32,10,31,08,27,11,01,22,,,1.9,1.1,1.5*3B
$GPGGA,081642.000,2729.2694,S,15300.1379,E,1,10,1.1,18.1,M,37.1,M,,0000*78
$GPGSA,M,3,14,57,32,10,31,08,27,11,01,22,,,1.9,1.1,1.5*3B
$GPGSV,3,1,12,14,73,238,42,57,65,225,37,32,61,165,45,10,43,118,34*7A
$GPGSV,3,2,12,31,42,019,43,08,25,275,41,27,23,317,42,11,19,227,32*73
$GPGSV,3,3,12,01,11,218,18,22,11,243,24,21,06,035,18,42,56,343,34*76
$GPGGA,081643.000,2729.2682,S,15300.1334,E,1,10,1.1,18.1,M,37.1,M,,0000*77
$GPGSA,M,3,14,57,32,10,31,08,27,11,01,22,,,1.9,1.1,1.5*3B
$GPGGA,081644.000,2729.2672,S,15300.1288,E,1,10,1.1,18.3,M,37.1,M,,0000*7B
$GPGSA,M,3,14,57,32,10,31,08,27,11,01,22,,,1.9,1.1,1.5*3B
$GPGGA,081645.000,2729.2664,S,15300.1239,E,1,10,1.1,18.4,M,37.1,M,,0000*70
$GPGSA,M,3,14,57,32,10,31,08,27,11,01,22,,,1.9,1.1,1.5*3B
$GPGGA,081646.000,2729.2656,S,15300.1187,E,1,10,1.1,18.5,M,37.1,M,,0000*75
$GPGSA,M,3,14,57,32,10,31,08,27,11,01,22,,,1.9,1.1,1.5*3B
$GPGGA,081647.000,2729.2647,S,15300.1136,E,1,10,1.1,18.7,M,37.1,M,,0000*7C
$GPGSA,M,3,14,57,32,10,31,08,27,11,01,22,,,1.9,1.1,1.5*3B
$GPGSV,3,1,12,14,73,238,42,57,65,225,37,32,61,165,44,10,43,118,30*7F
$GPGSV,3,2,12,31,42,019,37,08,25,275,35,27,23,317,40,11,19,227,33*70
$GPGSV,3,3,12,01,11,218,27,22,11,243,21,21,06,035,20,42,56,343,36*76
$GPGGA,081648.000,2729.2637,S,15300.1087,E,1,10,1.1,18.9,M,37.1,M,,0000*71
$GPGSA,M,3,14,57,32,10,31,08,27,11,01,22,,,1.9,1.1,1.5*3B
$GPGGA,081649.000,2729.2625,S,15300.1040,E,1,10,1.1,18.8,M,37.1,M,,0000*79
$GPGSA,M,3,14,57,32,10,31,08,27,11,01,22,,,1.9,1.1,1.5*3B
$GPGGA,081650.000,2729.2612,S,15300.0998,E,1,10,1.1,18.8,M,37.1,M,,0000*78
$GPGSA,M,3,14,57,32,10,31,08,27,11,01,22,,,1.9,1.1,1.5*3B
$GPGGA,081651.000,2729.2602,S,15300.0958,E,1,10,1.1,18.7,M,37.1,M,,0000*7B
$GPGSA,M,3,14,57,32,10,31,08,27,11,01,22,,,1.9,1.1,1.5*3B
$GPGGA,081652.000,2729.2599,S,15300.0917,E,1,10,1.1,18.7,M,37.1,M,,0000*72
$GPGSA,M,3,14,57,32,10,31,08,27,11,01,22,,,1.9,1.1,1.5*3B
$GPGSV,3,1,12,14,73,238,40,57,65,225,38,32,61,165,44,10,43,118,34*76
$GPGSV,3,2,12,31,42,019,41,08,25,275,37,27,23,317,37,11,19,227,29*78
$GPGSV,3,3,12,01,11,218,23,22,11,243,22,21,06,035,19,42,56,343,34*79
$GPGGA,081653.000,2729.2601,S,15300.0876,E,1,10,1.1,18.7,M,37.1,M,,0000*77
$GPGSA,M,3,14,57,32,10,31,08,27,11,01,22,,,1.9,1.1,1.5*3B
$GPGGA,081654.000,2729.2603,S,15300.0830,E,1,10,1.1,18.6,M,37.1,M,,0000*71
$GPGSA,M,3,14,57,32,10,31,08,27,11,01,22,,,1.9,1.1,1.5*3B
$GPGGA,081655.000,2729.2599,S,15300.0779,E,1,10,1.1,18.5,M,37.1,M,,0000*71
$GPGSA,M,3,14,57,32,10,31,08,27,11,01,22,,,1.9,1.1,1.5*3B
$GPGGA,081656.000,2729.2592,S,15300.0727,E,1,10,1.1,18.5,M,37.1,M,,0000*72
$GPGSA,M,3,14,57,32,10,31,08,27,11,01,22,,,1.9,1.1,1.5*3B
$GPGGA,081657.000,2729.2583,S,15300.0674,E,1,10,1.1,18.6,M,37.1,M,,0000*77
$GPGSA,M,3,14,57,32,10,31,08,27,11,01,22,,,1.9,1.1,1.5*3B
$GPGSV,3,1,12,14,73,238,41,57,65,225,38,32,61,165,44,10,43,118,32*71
$GPGSV,3,2,12,31,42,019,42,08,25,275,36,27,23,317,44,11,19,227,23*74
$GPGSV,3,3,12,01,11,218,24,22,11,243,22,21,06,035,18,42,56,343,37*7C
$GPGGA,081658.000,2729.2573,S,15300.0623,E,1,10,1.1,18.6,M,37.1,M,,0000*75
$GPGSA,M,3,14,57,32,10,31,08,27,11,01,22,,,1.9,1.1,1.5*3B
$GPGGA,081659.000,2729.2563,S,15300.0574,E,1,10,1.1,18.6,M,37.1,M,,0000*74
$GPGSA,M,3,14,57,32,10,31,08,27,11,01,22,,,1.9,1.1,1.5*3B
$GPGGA,081700.000,2729.2555,S,15300.0529,E,1,10,1.1,18.6,M,37.1,M,,0000*74
$GPGSA,M,3,14,57,32,10,31,08,27,11,01,22,,,1.9,1.1,1.5*3B
$GPGGA,081701.000,2729.2549,S,15300.0489,E,1,10,1.1,18.6,M,37.1,M,,0000*73
$GPGSA,M,3,14,57,32,10,31,08,27,11,01,22,,,1.9,1.1,1.5*3B
$GPGGA,081702.000,2729.2546,S,15300.0453,E,1,09,1.1,18.5,M,37.1,M,,0000*73
$GPGSA,M,3,14,57,32,10,31,08,27,11,22,,,,2.0,1.1,1.7*32
$GPGSV,3,1,12,14,73,238,42,57,65,225,34,32,61,165,44,10,43,118,35*79
$GPGSV,3,2,12,31,42,019,43,08,25,275,38,27,23,317,36,11,19,227,23*7E
$GPGSV,3,3,12,22,11,243,24,01,11,218,18,21,06,035,19,42,56,343,35*76
$GPGGA,081703.000,2729.2543,S,15300.0423,E,1,09,1.1,18.3,M,37.1,M,,0000*76
$GPGSA,M,3,14,57,32,10,31,08,27,11,22,,,,2.0,1.1,1.7*32
$GPGGA,081704.000,2729.2539,S,15300.0398,E,1,09,1.1,18.4,M,37.1,M,,0000*7C
$GPGSA,M,3,14,57,32,10,31,08,27,11,22,,,,2.0,1.1,1.7*32
$GPGGA,081705.000,2729.2534,S,15300.0383,E,1,10,1.1,18.4,M,37.1,M,,0000*72
$GPGSA,M,3,14,57,32,10,31,08,27,11,01,22,,,1.9,1.1,1.5*3B
$GPGGA,081706.000,2729.2530,S,15300.0376,E,1,10,1.1,18.8,M,37.1,M,,0000*73
$GPGSA,M,3,14,57,32,10,31,08,27,11,01,22,,,1.9,1.1,1.5*3B
$GPGGA,081707.000,2729.2529,S,15300.0375,E,1,10,1.1,18.6,M,37.1,M,,0000*77
$GPGSA,M,3,14,57,32,10,31,08,27,11,01,22,,,1.9,1.1,1.5*3B
$GPGSV,3,1,12,14,73,237,41,57,65,225,35,32,61,164,41,10,43,118,35*70
$GPGSV,3,2,12,31,42,019,42,08,25,275,39,27,23,318,43,11,19,227,40*76
$GPGSV,3,3,12,01,11,218,34,22,11,243,40,21,06,035,22,42,56,343,37*70
$GPGGA,081708.000,2729.2529,S,15300.0375,E,1,10,1.1,18.7,M,37.1,M,,0000*79
$GPGSA,M,3,14,57,32,10,31,08,27,11,01,22,,,1.9,1.1,1.5*3B
$GPGGA,081709.000,2729.2529,S,15300.0375,E,1,10,1.1,18.7,M,37.1,M,,0000*78
$GPGSA,M,3,14,57,32,10,31,08,27,11,01,22,,,1.9,1.1,1.5*3B
$GPGGA,081710.000,2729.2529,S,15300.0375,E,1,10,1.1,18.7,M,37.1,M,,0000*70
$GPGSA,M,3,14,57,32,10,31,08,27,11,01,22,,,1.9,1.1,1.5*3B
$GPGGA,081711.000,2729.2529,S,15300.0375,E,1,10,1.1,18.7,M,37.1,M,,0000*71
$GPGSA,M,3,14,57,32,10,31,08,27,11,01,22,,,1.9,1.1,1.5*3B
$GPGGA,081712.000,2729.2521,S,15300.0371,E,1,10,1.1,19.5,M,37.1,M,,0000*7D
$GPGSA,M,3,14,57,32,10,31,08,27,11,01,22,,,1.9,1.1,1.5*3B
$GPGSV,3,1,12,14,73,237,37,57,65,225,37,32,61,164,42,10,43,118,37*72
$GPGSV,3,2,12,31,42,019,40,08,25,275,31,27,23,318,42,11,19,227,39*73
$GPGSV,3,3,12,01,11,218,36,22,11,243,36,21,06,035,26,42,56,343,38*78
$GPGGA,081713.000,2729.2506,S,15300.0366,E,1,10,1.1,19.7,M,37.1,M,,0000*7D
$GPGSA,M,3,14,57,32,10,31,08,27,11,01,22,,,1.9,1.1,1.5*3B
$GPGGA,081714.000,2729.2480,S,15300.0367,E,1,10,1.1,19.9,M,37.1,M,,0000*7A
$GPGSA,M,3,14,57,32,10,31,08,27,11,01,22,,,1.9,1.1,1.5*3B
$GPGGA,081715.000,2729.2445,S,15300.0380,E,1,10,1.1,20.0,M,37.1,M,,0000*78
$GPGSA,M,3,14,57,32,10,31,08,27,11,01,22,,,1.9,1.1,1.5*3B
$GPGGA,081716.000,2729.2407,S,15300.0401,E,1,10,1.1,20.1,M,37.1,M,,0000*72
$GPGSA,M,3,14,57,32,10,31,08,27,11,01,22,,,1.9,1.1,1.5*3B
$GPGGA,081717.000,2729.2366,S,15300.0426,E,1,10,1.1,19.9,M,37.1,M,,0000*74
$GPGSA,M,3,14,57,32,10,31,08,27,11,01,22,,,1.9,1.1,1.5*3B
$GPGSV,3,1,12,14,73,237,38,57,65,225,38,32,61,164,43,10,43,118,40*73
$GPGSV,3,2,12,31,42,019,47,08,25,275,24,27,23,318,37,11,19,227,29*73
$GPGSV,3,3,12,01,11,218,28,22,11,243,25,21,06,035,35,42,56,343,39*76
$GPGGA,081718.000,2729.2322,S,15300.0456,E,1,10,1.1,19.7,M,37.1,M,,0000*72
$GPGSA,M,3,14,57,32,10,31,08,27,11,01,22,,,1.9,1.1,1.5*3B
$GPGGA,081719.000,2729.2274,S,15300.0486,E,1,10,1.1,19.4,M,37.1,M,,0000*7F
$GPGSA,M,3,14,57,32,10,31,08,27,11,01,22,,,1.9,1.1,1.5*3B
$GPGGA,081720.000,2729.2222,S,15300.0520,E,1,10,1.1,19.5,M,37.1,M,,0000*7A
$GPGSA,M,3,14,57,32,10,31,08,27,11,01,22,,,1.9,1.1,1.5*3B
$GPGGA,081721.000,2729.2169,S,15300.0553,E,1,10,1.1,19.2,M,37.1,M,,0000*74
$GPGSA,M,3,14,57,32,10,31,08,27,11,01,22,,,1.9,1.1,1.5*3B
$GPGGA,081722.000,2729.2114,S,15300.0588,E,1,10,1.1,18.9,M,37.1,M,,0000*71
$GPGSA,M,3,14,57,32,10,31,08,27,11,01,22,,,1.9,1.1,1.5*3B
$GPGSV,3,1,12,14,73,237,37,57,65,225,39,32,61,164,43,10,43,118,39*73
$GPGSV,3,2,12,31,42,019,47,08,25,275,27,27,23,318,38,11,19,227,25*73
$GPGSV,3,3,12,01,11,218,21,22,11,243,26,21,06,035,36,42,56,343,39*7F
$GPGGA,081723.000,2729.2058,S,15300.0625,E,1,10,1.1,18.7,M,37.1,M,,0000*73
$GPGSA,M,3,14,57,32,10,31,08,27,11,01,22,,,1.9,1.1,1.5*3B
$GPGGA,081724.000,2729.2000,S,15300.0662,E,1,10,1.1,18.9,M,37.1,M,,0000*74
$GPGSA,M,3,14,57,32,10,31,08,27,11,01,22,,,1.9,1.1,1.5*3B
$GPGGA,081725.000,2729.1942,S,15300.0699,E,1,10,1.1,19.1,M,37.1,M,,0000*74
$GPGSA,M,3,14,57,32,10,31,08,27,11,01,22,,,1.9,1.1,1.5*3B
$GPGGA,081726.000,2729.1885,S,15300.0737,E,1,10,1.1,19.0,M,37.1,M,,0000*79
$GPGSA,M,3,14,57,32,10,31,08,27,11,01,22,,,1.9,1.1,1.5*3B
$GPGGA,081727.000,2729.1828,S,15300.0774,E,1,10,1.1,18.9,M,37.1,M,,0000*70
$GPGSA,M,3,14,57,32,10,31,08,27,11,01,22,,,1.9,1.1,1.5*3B
$GPGSV,3,1,12,14,73,237,36,57,65,225,40,32,61,164,44,10,43,118,38*7A
$GPGSV,3,2,12,31,42,019,47,08,25,275,28,27,23,318,38,11,19,227,36*7E
$GPGSV,3,3,12,01,11,218,20,22,11,243,34,21,06,035,37,42,56,343,39*7C
$GPGGA,081728.000,2729.1770,S,15300.0811,E,1,10,1.1,18.7,M,37.1,M,,0000*7F
$GPGSA,M,3,14,57,32,10,31,08,27,11,01,22,,,1.9,1.1,1.5*3B
$GPGGA,081729.000,2729.1712,S,15300.0849,E,1,10,1.1,18.5,M,37.1,M,,0000*75
$GPGSA,M,3,14,57,32,10,31,08,27,11,01,22,,,1.9,1.1,1.5*3B
$GPGGA,081730.000,2729.1653,S,15300.0885,E,1,10,1.1,18.0,M,37.1,M,,0000*7C
$GPGSA,M,3,14,57,32,10,31,08,27,11,01,22,,,1.9,1.1,1.5*3B
$GPGGA,081731.000,2729.1594,S,15300.0920,E,1,10,1.1,17.6,M,37.1,M,,0000*72
$GPGSA,M,3,14,57,32,10,31,08,27,11,01,22,,,1.9,1.1,1.5*3B
$GPGGA,081732.000,2729.1535,S,15300.0955,E,1,10,1.1,17.3,M,37.1,M,,0000*7D
$GPGSA,M,3,14,57,32,10,31,08,27,11,01,22,,,1.9,1.1,1.5*3B
$GPGSV,3,1,12,14,73,237,35,57,65,225,40,32,61,164,44,10,43,118,39*78
$GPGSV,3,2,12,31,42,019,47,08,25,275,29,27,23,318,38,11,19,227,34*7D
$GPGSV,3,3,12,01,11,218,21,22,11,243,28,21,06,035,37,42,56,343,39*70
$GPGGA,081733.000,2729.1476,S,15300.0992,E,1,10,1.1,17.0,M,37.1,M,,0000*72
$GPGSA,M,3,14,57,32,10,31,08,27,11,01,22,,,1.9,1.1,1.5*3B
$GPGGA,081734.000,2729.1419,S,15300.1030,E,1,10,1.1,16.7,M,37.1,M,,0000*7A
$GPGSA,M,3,14,57,32,10,31,08,27,11,01,22,,,1.9,1.1,1.5*3B
$GPGGA,081735.000,2729.1360,S,15300.1069,E,1,10,1.1,16.3,M,37.1,M,,0000*7A
$GPGSA,M,3,14,57,32,10,31,08,27,11,01,22,,,1.9,1.1,1.5*3B
$GPGGA,081736.000,2729.1301,S,15300.1108,E,1,10,1.1,16.0,M,37.1,M,,0000*7B
$GPGSA,M,3,14,57,32,10,31,08,27,11,01,22,,,1.9,1.1,1.5*3B
$GPGGA,081737.000,2729.1242,S,15300.1147,E,1,10,1.1,15.6,M,37.1,M,,0000*72
$GPGSA,M,3,14,57,32,10,31,08,27,11,01,22,,,1.9,1.1,1.5*3B
$GPGSV,3,1,12,14,73,237,35,57,65,225,39,32,61,164,44,10,43,118,39*76
$GPGSV,3,2,12,31,42,019,46,08,25,275,28,27,23,318,38,11,19,227,31*78
$GPGSV,3,3,12,01,11,218,22,22,11,243,27,21,06,035,37,42,56,343,33*76
$GPGGA,081738.000,2729.1182,S,15300.1187,E,1,10,1.1,15.4,M,37.1,M,,0000*7C
$GPGSA,M,3,14,57,32,10,31,08,27,11,01,22,,,1.9,1.1,1.5*3B
$GPGGA,081739.000,2729.1122,S,15300.1226,E,1,10,1.1,15.2,M,37.1,M,,0000*79
$GPGSA,M,3,14,57,32,10,31,08,27,11,01,22,,,1.9,1.1,1.5*3B
$GPGGA,081740.000,2729.1061,S,15300.1265,E,1,10,1.1,15.1,M,37.1,M,,0000*75
$GPGSA,M,3,14,57,32,10,31,08,27,11,01,22,,,1.9,1.1,1.5*3B
$GPGGA,081741.000,2729.1000,S,15300.1303,E,1,10,1.1,15.0,M,37.1,M,,0000*73
$GPGSA,M,3,14,57,32,10,31,08,27,11,01,22,,,1.9,1.1,1.5*3B
$GPGGA,081742.000,2729.0939,S,15300.1343,E,1,10,1.1,15.0,M,37.1,M,,0000*76
$GPGSA,M,3,14,57,32,10,31,08,27,11,01,22,,,1.9,1.1,1.5*3B
$GPGSV,3,1,12,14,73,237,36,57,65,225,39,32,61,164,44,10,43,118,39*75
$GPGSV,3,2,12,31,42,019,46,08,25,275,29,27,23,318,30,11,19,227,32*72
$GPGSV,3,3,12,01,11,218,21,22,11,243,33,21,06,035,37,42,56,343,34*77
$GPGGA,081743.000,2729.0877,S,15300.1382,E,1,09,1.1,15.1,M,37.1,M,,0000*78
$GPGSA,M,3,14,57,32,10,31,08,27,11,22,,,,2.0,1.1,1.7*32
$GPGGA,081744.000,2729.0816,S,15300.1421,E,1,10,1.1,15.2,M,37.1,M,,0000*7D
$GPGSA,M,3,14,57,32,10,31,08,27,11,01,22,,,1.9,1.1,1.5*3B
$GPGGA,081745.000,2729.0754,S,15300.1460,E,1,10,1.1,15.5,M,37.1,M,,0000*77
$GPGSA,M,3,14,57,32,10,31,08,27,11,01,22,,,1.9,1.1,1.5*3B
$GPGGA,081746.000,2729.0693,S,15300.1499,E,1,10,1.1,15.7,M,37.1,M,,0000*7A
$GPGSA,M,3,14,57,32,10,31,08,27,11,01,22,,,1.9,1.1,1.5*3B
$GPGGA,081747.000,2729.0632,S,15300.1538,E,1,10,1.1,16.0,M,37.1,M,,0000*7E
$GPGSA,M,3,14,57,32,10,31,08,27,11,01,22,,,1.9,1.1,1.5*3B
$GPGSV,3,1,12,14,73,236,37,57,65,225,38,32,60,164,45,10,43,118,39*74
$GPGSV,3,2,12,31,42,019,45,08,25,275,26,27,23,318,33,11,19,228,27*76
$GPGSV,3,3,12,01,11,218,21,22,11,242,23,21,06,035,34,42,56,343,38*78
$GPGGA,081748.000,2729.0572,S,15300.1577,E,1,10,1.1,16.3,M,37.1,M,,0000*7E
$GPGSA,M,3,14,57,32,10,31,08,27,11,01,22,,,1.9,1.1,1.5*3B
$GPGGA,081749.000,2729.0513,S,15300.1614,E,1,10,1.1,16.4,M,37.1,M,,0000*79
$GPGSA,M,3,14,57,32,10,31,08,27,11,01,22,,,1.9,1.1,1.5*3B
$GPGGA,081750.000,2729.0456,S,15300.1651,E,1,10,1.1,16.4,M,37.1,M,,0000*70
$GPGSA,M,3,14,57,32,10,31,08,27,11,01,22,,,1.9,1.1,1.5*3B
$GPGGA,081751.000,2729.0399,S,15300.1687,E,1,10,1.1,16.5,M,37.1,M,,0000*7F
$GPGSA,M,3,14,57,32,10,31,08,27,11,01,22,,,1.9,1.1,1.5*3B
$GPGGA,081752.000,2729.0340,S,15300.1724,E,1,10,1.1,16.3,M,37.1,M,,0000*76
$GPGSA,M,3,14,57,32,10,31,08,27,11,01,22,,,1.9,1.1,1.5*3B
$GPGSV,3,1,12,14,73,236,36,57,65,225,39,32,60,164,45,10,43,118,38*75
$GPGSV,3,2,12,31,42,019,46,08,25,275,27,27,23,318,29,11,19,228,35*7C
$GPGSV,3,3,12,01,11,218,21,22,11,242,21,21,06,035,36,42,56,343,38*78
$GPGGA,081753.000,2729.0281,S,15300.1762,E,1,10,1.1,16.3,M,37.1,M,,0000*79
$GPGSA,M,3,14,57,32,10,31,08,27,11,01,22,,,1.9,1.1,1.5*3B
$GPGGA,081754.000,2729.0221,S,15300.1799,E,1,09,1.1,16.0,M,37.1,M,,0000*7B
$GPGSA,M,3,14,57,32,10,31,08,27,11,22,,,,2.0,1.1,1.7*32
$GPGGA,081755.000,2729.0161,S,15300.1836,E,1,09,1.1,15.7,M,37.1,M,,0000*73
$GPGSA,M,3,14,57,32,10,31,08,27,11,22,,,,2.0,1.1,1.7*32
$GPGGA,081756.000,2729.0101,S,15300.1873,E,1,09,1.1,15.4,M,37.1,M,,0000*74
$GPGSA,M,3,14,57,32,10,31,08,27,11,22,,,,2.0,1.1,1.7*32
$GPGGA,081757.000,2729.0040,S,15300.1911,E,1,10,1.1,15.3,M,37.1,M,,0000*7B
$GPGSA,M,3,14,57,32,10,31,08,27,11,01,22,,,1.9,1.1,1.5*3B
$GPGSV,3,1,12,14,73,236,36,57,65,225,39,32,60,164,44,10,43,118,38*74
$GPGSV,3,2,12,31,42,019,47,08,25,275,27,27,23,318,25,11,19,228,32*76
$GPGSV,3,3,12,01,11,218,20,22,11,242,35,21,06,035,36,42,56,343,38*7C
$GPGGA,081758.000,2728.9979,S,15300.1950,E,1,10,1.1,15.2,M,37.1,M,,0000*7B
$GPGSA,M,3,14,57,32,10,31,08,27,11,01,22,,,1.9,1.1,1.5*3B
$GPGGA,081759.000,2728.9917,S,15300.1988,E,1,10,1.1,15.1,M,37.1,M,,0000*74
$GPGSA,M,3,14,57,32,10,31,08,27,11,01,22,,,1.9,1.1,1.5*3B
$GPGGA,081800.000,2728.9856,S,15300.2026,E,1,10,1.1,15.2,M,37.1,M,,0000*7E
$GPGSA,M,3,14,57,32,10,31,08,27,11,01,22,,,1.9,1.1,1.5*3B
$GPGGA,081801.000,2728.9796,S,15300.2063,E,1,10,1.1,15.4,M,37.1,M,,0000*7B
$GPGSA,M,3,14,57,32,10,31,08,27,11,01,22,,,1.9,1.1,1.5*3B
$GPGGA,081802.000,2728.9738,S,15300.2100,E,1,10,1.1,16.0,M,37.1,M,,0000*7F
$GPGSA,M,3,14,57,32,10,31,08,27,11,01,22,,,1.9,1.1,1.5*3B
$GPGSV,3,1,12,14,73,236,36,57,65,225,39,32,60,164,45,10,43,118,37*7A
$GPGSV,3,2,12,31,42,019,46,08,25,275,28,27,23,318,38,11,19,228,36*70
$GPGSV,3,3,12,01,11,218,22,22,11,242,29,21,06,035,33,42,56,343,40*79
$GPGGA,081803.000,2728.9682,S,15300.2135,E,1,10,1.1,16.3,M,37.1,M,,0000*7B
$GPGSA,M,3,14,57,32,10,31,08,27,11,01,22,,,1.9,1.1,1.5*3B
$GPGGA,081804.000,2728.9629,S,15300.2170,E,1,10,1.1,16.9,M,37.1,M,,0000*76
$GPGSA,M,3,14,57,32,10,31,08,27,11,01,22,,,1.9,1.1,1.5*3B
$GPGGA,081805.000,2728.9579,S,15300.2202,E,1,10,1.1,17.4,M,37.1,M,,0000*7B
$GPGSA,M,3,14,57,32,10,31,08,27,11,01,22,,,1.9,1.1,1.5*3B
$GPGGA,081806.000,2728.9532,S,15300.2233,E,1,10,1.1,17.4,M,37.1,M,,0000*75
$GPGSA,M,3,14,57,32,10,31,08,27,11,01,22,,,1.9,1.1,1.5*3B
$GPGGA,081807.000,2728.9486,S,15300.2264,E,1,10,1.1,17.5,M,37.1,M,,0000*79
$GPGSA,M,3,14,57,32,10,31,08,27,11,01,22,,,1.9,1.1,1.5*3B
$GPGSV,3,1,12,14,73,235,37,57,65,225,38,32,60,164,45,10,43,117,33*72
$GPGSV,3,2,12,31,42,019,46,08,24,276,30,27,22,318,38,11,19,228,35*79
$GPGSV,3,3,12,01,12,218,25,22,11,242,36,21,06,035,35,42,56,343,39*7B
$GPGGA,081808.000,2728.9438,S,15300.2295,E,1,11,1.1,17.4,M,37.1,M,,0000*7D
$GPGSA,M,3,14,57,32,10,31,08,27,11,01,22,42,,1.8,1.1,1.5*3C
$GPGGA,081809.000,2728.9388,S,15300.2328,E,1,11,1.1,17.4,M,37.1,M,,0000*77
$GPGSA,M,3,14,57,32,10,31,08,27,11,01,22,42,,1.8,1.1,1.5*3C
$GPGGA,081810.000,2728.9335,S,15300.2361,E,1,11,1.1,17.3,M,37.1,M,,0000*73
$GPGSA,M,3,14,57,32,10,31,08,27,11,01,22,42,,1.8,1.1,1.5*3C
$GPGGA,081811.000,2728.9281,S,15300.2396,E,1,11,1.1,17.1,M,37.1,M,,0000*76
$GPGSA,M,3,14,57,32,10,31,08,27,11,01,22,42,,1.8,1.1,1.5*3C
$GPGGA,081812.000,2728.9225,S,15300.2431,E,1,11,1.1,17.0,M,37.1,M,,0000*70
$GPGSA,M,3,14,57,32,10,31,08,27,11,01,22,42,,1.8,1.1,1.5*3C
$GPGSV,3,1,12,14,73,235,36,57,65,225,39,32,60,164,44,10,43,117,37*77
$GPGSV,3,2,12,31,42,019,46,08,24,276,24,27,22,318,35,11,19,228,29*7C
$GPGSV,3,3,12,01,12,218,18,22,11,242,29,42,56,343,39,21,06,035,35*7B
$GPGGA,081813.000,2728.9170,S,15300.2467,E,1,11,1.1,16.7,M,37.1,M,,0000*77
$GPGSA,M,3,14,57,32,10,31,08,27,11,01,22,42,,1.8,1.1,1.5*3C
$GPGGA,081814.000,2728.9114,S,15300.2502,E,1,11,1.1,16.6,M,37.1,M,,0000*71
$GPGSA,M,3,14,57,32,10,31,08,27,11,01,22,42,,1.8,1.1,1.5*3C
$GPGGA,081815.000,2728.9058,S,15300.2537,E,1,11,1.1,16.2,M,37.1,M,,0000*7B
$GPGSA,M,3,14,57,32,10,31,08,27,11,01,22,42,,1.8,1.1,1.5*3C
$GPGGA,081816.000,2728.9002,S,15300.2573,E,1,11,1.1,16.0,M,37.1,M,,0000*75
$GPGSA,M,3,14,57,32,10,31,08,27,11,01,22,42,,1.8,1.1,1.5*3C
$GPGGA,081817.000,2728.8945,S,15300.2610,E,1,11,1.1,16.0,M,37.1,M,,0000*79
$GPGSA,M,3,14,57,32,10,31,08,27,11,01,22,42,,1.8,1.1,1.5*3C
$GPGSV,3,1,12,14,73,235,36,57,65,225,39,32,60,164,44,10,43,117,37*77
$GPGSV,3,2,12,31,42,019,47,08,24,276,31,27,22,318,30,11,19,228,36*72
$GPGSV,3,3,12,01,12,218,23,22,11,242,35,42,56,343,39,21,06,035,37*7C
$GPGGA,081818.000,2728.8887,S,15300.2647,E,1,11,1.1,15.8,M,37.1,M,,0000*70
$GPGSA,M,3,14,57,32,10,31,08,27,11,01,22,42,,1.8,1.1,1.5*3C
$GPGGA,081819.000,2728.8828,S,15300.2685,E,2,06,2.0,15.8,M,37.1,M,2.0,0000*51
$GPGSA,M,3,14,31,08,27,21,42,,,,,,,2.7,2.0,1.8*3F
$GPGGA,081820.000,2728.8769,S,15300.2723,E,2,05,2.6,15.8,M,37.1,M,3.0,0000*58
$GPGSA,M,3,14,31,08,21,42,,,,,,,,3.1,2.6,1.8*3B
$GPGGA,081821.000,2728.8711,S,15300.2762,E,2,05,2.6,15.9,M,37.1,M,4.0,0000*55
$GPGSA,M,3,14,31,08,21,42,,,,,,,,3.1,2.6,1.8*3B
$GPGGA,081822.000,2728.8654,S,15300.2800,E,2,05,2.6,16.0,M,37.1,M,5.0,0000*56
$GPGSA,M,3,14,31,08,21,42,,,,,,,,3.1,2.6,1.8*3B
$GPGSV,3,1,12,14,73,235,36,31,43,019,47,08,24,276,27,21,06,035,37*79
$GPGSV,3,2,12,42,56,343,39,01,12,218,23,10,43,117,37,11,19,228,21*7E
$GPGSV,3,3,12,22,11,242,21,32,60,164,44,57,65,225,40,27,22,318,*76
$GPGGA,081823.000,2728.8599,S,15300.2838,E,2,06,2.0,16.0,M,37.1,M,2.0,0000*5C
$GPGSA,M,3,14,31,08,27,21,42,,,,,,,2.7,2.0,1.8*3F
$GPGGA,081824.000,2728.8542,S,15300.2877,E,2,06,2.0,16.3,M,37.1,M,2.0,0000*55
$GPGSA,M,3,14,31,08,27,21,42,,,,,,,2.7,2.0,1.8*3F
$GPGGA,081825.000,2728.8484,S,15300.2914,E,2,06,2.0,16.3,M,37.1,M,2.0,0000*5B
$GPGSA,M,3,14,31,08,27,21,42,,,,,,,2.7,2.0,1.8*3F
$GPGGA,081826.000,2728.8424,S,15300.2951,E,2,06,2.0,16.1,M,37.1,M,3.0,0000*50
$GPGSA,M,3,14,31,08,27,21,42,,,,,,,2.7,2.0,1.8*3F
$GPGGA,081827.000,2728.8363,S,15300.2988,E,2,06,2.0,16.0,M,37.1,M,4.0,0000*57
$GPGSA,M,3,14,31,08,27,21,42,,,,,,,2.7,2.0,1.8*3F
$GPGSV,3,1,12,14,73,235,36,31,43,019,46,08,24,276,27,27,22,318,40*74
$GPGSV,3,2,12,21,06,035,37,42,56,343,39,01,12,218,21,10,43,117,38*77
$GPGSV,3,3,12,11,19,228,27,22,11,242,07,32,60,164,44,57,65,225,40*78
$GPGGA,081828.000,2728.8303,S,15300.3025,E,2,06,2.0,15.9,M,37.1,M,5.0,0000*5A
$GPGSA,M,3,14,31,08,27,21,42,,,,,,,2.7,2.0,1.8*3F
$GPGGA,081829.000,2728.8243,S,15300.3061,E,2,06,2.0,15.8,M,37.1,M,2.0,0000*58
$GPGSA,M,3,14,31,08,27,21,42,,,,,,,2.7,2.0,1.8*3F
$GPGGA,081830.000,2728.8185,S,15300.3098,E,2,06,2.0,15.6,M,37.1,M,2.0,0000*51
$GPGSA,M,3,14,31,08,27,21,42,,,,,,,2.7,2.0,1.8*3F
$GPGGA,081831.000,2728.8127,S,15300.3134,E,2,06,2.0,15.5,M,37.1,M,2.0,0000*5C
$GPGSA,M,3,14,31,08,27,21,42,,,,,,,2.7,2.0,1.8*3F
$GPGGA,081832.000,2728.8069,S,15300.3168,E,2,06,2.0,15.1,M,37.1,M,2.0,0000*59
$GPGSA,M,3,14,31,08,27,21,42,,,,,,,2.7,2.0,1.8*3F
$GPGSV,3,1,12,14,73,235,36,31,43,019,46,08,24,276,32,27,22,318,36*71
$GPGSV,3,2,12,21,06,035,37,42,56,343,38,01,12,218,21,10,43,117,38*76
$GPGSV,3,3,12,11,19,228,33,22,11,242,24,32,60,164,43,57,65,225,40*7B
$GPGGA,081833.000,2728.8013,S,15300.3203,E,2,06,2.0,14.8,M,37.1,M,2.0,0000*53
$GPGSA,M,3,14,31,08,27,21,42,,,,,,,2.7,2.0,1.8*3F
$GPGGA,081834.000,2728.7957,S,15300.3238,E,2,06,2.0,14.5,M,37.1,M,3.0,0000*56
$GPGSA,M,3,14,31,08,27,21,42,,,,,,,2.7,2.0,1.8*3F
$GPGGA,081835.000,2728.7902,S,15300.3271,E,2,06,2.0,14.1,M,37.1,M,2.0,0000*5F
$GPGSA,M,3,14,31,08,27,21,42,,,,,,,2.7,2.0,1.8*3F
$GPGGA,081836.000,2728.7849,S,15300.3305,E,2,06,2.0,13.9,M,37.1,M,2.0,0000*5F
$GPGSA,M,3,14,31,08,27,21,42,,,,,,,2.7,2.0,1.8*3F
$GPGGA,081837.000,2728.7796,S,15300.3338,E,2,06,2.0,13.6,M,37.1,M,1.0,0000*51
$GPGSA,M,3,14,31,08,27,21,42,,,,,,,2.7,2.0,1.8*3F
$GPGSV,3,1,12,14,73,235,35,31,43,019,47,08,24,276,27,27,22,318,34*75
$GPGSV,3,2,12,21,06,035,37,42,56,343,36,01,12,218,21,10,43,117,39*79
$GPGSV,3,3,12,11,20,228,34,22,11,242,25,32,60,164,43,57,65,225,40*77
$GPGGA,081838.000,2728.7743,S,15300.3370,E,2,06,2.0,13.3,M,37.1,M,2.0,0000*5C
$GPGSA,M,3,14,31,08,27,21,42,,,,,,,2.7,2.0,1.8*3F
$GPGGA,081839.000,2728.7690,S,15300.3400,E,2,06,2.0,12.9,M,37.1,M,3.0,0000*58
$GPGSA,M,3,14,31,08,27,21,42,,,,,,,2.7,2.0,1.8*3F
$GPGGA,081840.000,2728.7638,S,15300.3434,E,2,06,2.0,12.6,M,37.1,M,4.0,0000*5B
$GPGSA,M,3,14,31,08,27,21,42,,,,,,,2.7,2.0,1.8*3F
$GPGGA,081841.000,2728.7585,S,15300.3466,E,2,06,2.0,12.4,M,37.1,M,5.0,0000*5B
$GPGSA,M,3,14,31,08,27,21,42,,,,,,,2.7,2.0,1.8*3F
$GPGGA,081842.000,2728.7537,S,15300.3498,E,2,06,2.0,12.3,M,37.1,M,6.0,0000*54
$GPGSA,M,3,14,31,08,27,21,42,,,,,,,2.7,2.0,1.8*3F
$GPGSV,3,1,12,14,73,235,30,31,43,019,47,08,24,276,17,27,22,318,26*70
$GPGSV,3,2,12,21,06,035,37,42,56,343,36,01,12,218,21,10,43,117,39*79
$GPGSV,3,3,12,11,20,228,24,22,11,242,19,32,60,164,43,57,65,225,36*78
$GPGGA,081843.000,2728.7493,S,15300.3526,E,2,06,2.0,12.4,M,37.1,M,2.0,0000*5D
$GPGSA,M,3,14,31,08,27,21,42,,,,,,,2.7,2.0,1.8*3F
$GPGGA,081844.000,2728.7453,S,15300.3547,E,2,06,2.0,12.4,M,37.1,M,3.0,0000*50
$GPGSA,M,3,14,31,08,27,21,42,,,,,,,2.7,2.0,1.8*3F
$GPGGA,081845.000,2728.7419,S,15300.3565,E,2,06,2.0,12.4,M,37.1,M,4.0,0000*58
$GPGSA,M,3,14,31,08,27,21,42,,,,,,,2.7,2.0,1.8*3F
$GPGGA,081846.000,2728.7387,S,15300.3583,E,2,06,2.0,12.7,M,37.1,M,5.0,0000*51
$GPGSA,M,3,14,31,08,27,21,42,,,,,,,2.7,2.0,1.8*3F
$GPGGA,081847.000,2728.7358,S,15300.3600,E,2,06,2.0,12.7,M,37.1,M,2.0,0000*5D
$GPGSA,M,3,14,31,08,27,21,42,,,,,,,2.7,2.0,1.8*3F
$GPGSV,3,1,12,14,73,234,35,31,43,019,46,08,24,276,30,27,22,318,33*74
$GPGSV,3,2,12,21,06,035,37,42,56,343,37,01,12,218,20,10,43,117,39*79
$GPGSV,3,3,12,11,20,228,21,22,11,242,37,32,60,164,44,57,65,225,38*78
$GPGGA,081848.000,2728.7329,S,15300.3618,E,2,06,2.0,12.7,M,37.1,M,2.0,0000*5D
$GPGSA,M,3,14,31,08,27,21,42,,,,,,,2.7,2.0,1.8*3F
$GPGGA,081849.000,2728.7296,S,15300.3642,E,2,06,2.0,12.9,M,37.1,M,2.0,0000*58
$GPGSA,M,3,14,31,08,27,21,42,,,,,,,2.7,2.0,1.8*3F
$GPGGA,081850.000,2728.7257,S,15300.3668,E,2,06,2.0,13.1,M,37.1,M,3.0,0000*5D
$GPGSA,M,3,14,31,08,27,21,42,,,,,,,2.6,2.0,1.8*3E
$GPGGA,081851.000,2728.7213,S,15300.3694,E,2,06,2.0,13.2,M,37.1,M,2.0,0000*5D
$GPGSA,M,3,14,31,08,27,21,42,,,,,,,2.6,2.0,1.8*3E
$GPGGA,081852.000,2728.7168,S,15300.3727,E,2,06,2.0,13.5,M,37.1,M,3.0,0000*5E
$GPGSA,M,3,14,31,08,27,21,42,,,,,,,2.6,2.0,1.8*3E
$GPGSV,3,1,12,14,73,234,36,31,43,019,46,08,24,276,23,27,22,318,37*71
$GPGSV,3,2,12,21,06,035,37,42,56,343,38,01,12,218,20,10,43,117,39*76
$GPGSV,3,3,12,11,20,228,26,22,11,242,23,32,60,164,45,57,65,225,38*7B
$GPGGA,081853.000,2728.7119,S,15300.3762,E,2,06,2.0,13.9,M,37.1,M,2.0,0000*55
$GPGSA,M,3,14,31,08,27,21,42,,,,,,,2.6,2.0,1.8*3E
$GPGGA,081854.000,2728.7070,S,15300.3803,E,2,06,2.0,14.7,M,37.1,M,3.0,0000*5C
$GPGSA,M,3,14,31,08,27,21,42,,,,,,,2.6,2.0,1.8*3E
$GPGGA,081855.000,2728.7022,S,15300.3848,E,2,06,2.0,15.8,M,37.1,M,4.0,0000*5C
$GPGSA,M,3,14,31,08,27,21,42,,,,,,,2.6,2.0,1.8*3E
$GPGGA,081856.000,2728.6975,S,15300.3888,E,2,06,2.0,15.9,M,37.1,M,5.0,0000*59
$GPGSA,M,3,14,31,08,27,21,42,,,,,,,2.6,2.0,1.8*3E
$GPGGA,081857.000,2728.6929,S,15300.3928,E,2,06,2.0,16.0,M,37.1,M,6.0,0000*53
$GPGSA,M,3,14,31,08,27,21,42,,,,,,,2.6,2.0,1.8*3E
$GPGSV,3,1,12,14,73,234,37,31,43,019,46,08,24,276,28,27,22,318,31*7D
$GPGSV,3,2,12,21,06,035,28,42,56,343,34,01,12,218,25,10,43,117,39*71
$GPGSV,3,3,12,11,20,228,23,22,11,242,26,32,60,164,45,57,65,225,38*7B
$GPGGA,081858.000,2728.6884,S,15300.3968,E,2,05,2.6,15.7,M,37.1,M,7.0,0000*5E
$GPGSA,M,3,14,31,08,21,42,,,,,,,,3.1,2.6,1.8*3B
$GPGGA,081859.000,2728.6839,S,15300.4010,E,2,06,2.0,15.6,M,37.1,M,2.0,0000*59
$GPGSA,M,3,14,31,08,27,21,42,,,,,,,2.6,2.0,1.8*3E
$GPGGA,081900.000,2728.6796,S,15300.4054,E,2,06,2.0,15.4,M,37.1,M,2.0,0000*5C
$GPGSA,M,3,14,31,08,27,21,42,,,,,,,2.6,2.0,1.8*3E
$GPGGA,081901.000,2728.6753,S,15300.4098,E,2,06,2.0,15.2,M,37.1,M,3.0,0000*53
$GPGSA,M,3,14,31,08,27,21,42,,,,,,,2.6,2.0,1.8*3E
$GPGGA,081902.000,2728.6711,S,15300.4148,E,2,06,2.0,15.2,M,37.1,M,4.0,0000*5D
$GPGSA,M,3,14,31,08,27,21,42,,,,,,,2.6,2.0,1.8*3E
$GPGSV,3,1,12,14,73,234,37,31,43,019,46,08,24,276,26,27,22,318,31*73
$GPGSV,3,2,12,21,06,035,20,42,56,343,35,01,12,218,36,10,43,117,40*74
$GPGSV,3,3,12,11,20,228,29,22,11,242,31,32,60,164,47,57,65,225,39*74
$GPGGA,081903.000,2728.6669,S,15300.4195,E,2,06,2.0,15.1,M,37.1,M,5.0,0000*50
$GPGSA,M,3,14,31,08,27,21,42,,,,,,,2.6,2.0,1.8*3E
$GPGGA,081904.000,2728.6626,S,15300.4242,E,2,06,2.0,15.1,M,37.1,M,6.0,0000*56
$GPGSA,M,3,14,31,08,27,21,42,,,,,,,2.6,2.0,1.8*3E
$GPGGA,081905.000,2728.6583,S,15300.4290,E,2,06,2.0,14.9,M,37.1,M,2.0,0000*59
$GPGSA,M,3,14,31,08,27,21,42,,,,,,,2.6,2.0,1.8*3E
$GPGGA,081906.000,2728.6541,S,15300.4338,E,2,06,2.0,14.9,M,37.1,M,3.0,0000*56
$GPGSA,M,3,14,31,08,27,21,42,,,,,,,2.6,2.0,1.8*3E
$GPGGA,081907.000,2728.6497,S,15300.4384,E,2,06,2.0,15.2,M,37.1,M,4.0,0000*57
$GPGSA,M,3,14,31,08,27,21,42,,,,,,,2.6,2.0,1.8*3E
$GPGSV,3,1,12,14,73,234,37,31,43,019,46,08,24,276,27,27,22,318,39*7A
$GPGSV,3,2,12,21,05,034,30,42,56,343,35,01,12,218,37,10,43,117,41*77
$GPGSV,3,3,12,11,20,228,29,22,11,242,37,32,60,164,46,57,65,225,39*73
$GPGGA,081908.000,2728.6453,S,15300.4429,E,2,06,2.0,15.6,M,37.1,M,2.0,0000*52
$GPGSA,M,3,14,31,08,27,21,42,,,,,,,2.6,2.0,1.8*3E
$GPGGA,081909.000,2728.6411,S,15300.4477,E,2,06,2.0,15.7,M,37.1,M,3.0,0000*5E
$GPGSA,M,3,14,31,08,27,21,42,,,,,,,2.6,2.0,1.8*3E
$GPGGA,081910.000,2728.6369,S,15300.4526,E,2,06,2.0,15.9,M,37.1,M,4.0,0000*52
$GPGSA,M,3,14,31,08,27,21,42,,,,,,,2.6,2.0,1.8*3E
$GPGGA,081911.000,2728.6328,S,15300.4574,E,2,06,2.0,16.0,M,37.1,M,5.0,0000*5A
$GPGSA,M,3,14,31,08,27,21,42,,,,,,,2.6,2.0,1.8*3E
$GPGGA,081912.000,2728.6287,S,15300.4621,E,2,06,2.0,16.0,M,37.1,M,6.0,0000*5D
$GPGSA,M,3,14,31,08,27,21,42,,,,,,,2.6,2.0,1.8*3E
$GPGSV,3,1,12,14,73,234,38,31,43,019,46,08,24,276,28,27,22,318,39*7A
$GPGSV,3,2,12,21,05,034,24,42,56,343,35,01,12,218,37,10,43,117,42*71
$GPGSV,3,3,12,11,20,228,31,22,11,242,27,32,60,164,46,57,65,225,39*7B
$GPGGA,081913.000,2728.6247,S,15300.4668,E,2,06,2.0,15.8,M,37.1,M,2.0,0000*52
$GPGSA,M,3,14,31,08,27,21,42,,,,,,,2.6,2.0,1.8*3E
$GPGGA,081914.000,2728.6207,S,15300.4715,E,2,06,2.0,15.2,M,37.1,M,3.0,0000*51
$GPGSA,M,3,14,31,08,27,21,42,,,,,,,2.6,2.0,1.8*3E
$GPGGA,081915.000,2728.6166,S,15300.4763,E,2,06,2.0,14.9,M,37.1,M,4.0,0000*58
$GPGSA,M,3,14,31,08,27,21,42,,,,,,,2.6,2.0,1.8*3E
$GPGGA,081916.000,2728.6125,S,15300.4812,E,2,06,2.0,15.0,M,37.1,M,5.0,0000*5C
$GPGSA,M,3,14,31,08,27,21,42,,,,,,,2.6,2.0,1.8*3E
$GPGGA,081917.000,2728.6086,S,15300.4861,E,2,05,2.3,14.8,M,37.1,M,6.0,0000*5B
$GPGSA,M,3,14,31,27,21,42,,,,,,,,3.3,2.3,2.3*39
$GPGSV,3,1,12,14,73,233,37,31,43,019,42,27,22,318,27,21,05,034,31*7D
$GPGSV,3,2,12,42,56,343,24,01,12,218,37,08,24,276,19,10,43,117,40*71
$GPGSV,3,3,12,11,20,228,27,22,11,242,22,32,60,164,46,57,65,224,40*76
$GPGGA,081918.000,2728.6049,S,15300.4910,E,2,06,2.0,14.8,M,37.1,M,7.0,0000*51
$GPGSA,M,3,14,31,08,27,21,42,,,,,,,2.6,2.0,1.8*3E
$GPGGA,081919.000,2728.6012,S,15300.4958,E,2,06,2.0,14.9,M,37.1,M,8.0,0000*5C
$GPGSA,M,3,14,31,08,27,21,42,,,,,,,2.6,2.0,1.8*3E
$GPGGA,081920.000,2728.5972,S,15300.4991,E,2,05,2.3,14.3,M,37.1,M,9.0,0000*54
$GPGSA,M,3,14,31,27,21,42,,,,,,,,3.3,2.3,2.3*39
$GPGGA,081921.000,2728.5935,S,15300.5027,E,2,05,2.3,14.1,M,37.1,M,10.0,0000*69
$GPGSA,M,3,14,31,27,21,42,,,,,,,,3.3,2.3,2.3*39
$GPGGA,081922.000,2728.5899,S,15300.5065,E,2,06,2.0,13.9,M,37.1,M,11.0,0000*65
$GPGSA,M,3,14,31,08,27,21,42,,,,,,,2.6,2.0,1.8*3E
$GPGSV,3,1,12,14,73,233,37,31,43,019,46,08,24,276,12,27,22,318,40*75
$GPGSV,3,2,12,21,05,034,26,42,56,343,35,01,12,218,30,10,43,117,42*74
$GPGSV,3,3,12,11,20,228,28,22,11,242,20,32,60,164,46,57,65,224,40*7B
$GPGGA,081923.000,2728.5861,S,15300.5105,E,2,06,2.0,14.0,M,37.1,M,12.0,0000*69
$GPGSA,M,3,14,31,08,27,21,42,,,,,,,2.6,2.0,1.8*3E
$GPGGA,081924.000,2728.5824,S,15300.5147,E,2,06,2.0,14.0,M,37.1,M,13.0,0000*68
$GPGSA,M,3,14,31,08,27,21,42,,,,,,,2.6,2.0,1.8*3E
$GPGGA,081925.000,2728.5785,S,15300.5190,E,2,05,2.3,14.1,M,37.1,M,14.0,0000*61
$GPGSA,M,3,14,31,27,21,42,,,,,,,,3.3,2.3,2.3*39
$GPGGA,081926.000,2728.5746,S,15300.5234,E,2,05,2.3,14.3,M,37.1,M,15.0,0000*63
$GPGSA,M,3,14,31,27,21,42,,,,,,,,3.3,2.3,2.3*39
$GPGGA,081927.000,2728.5705,S,15300.5279,E,2,05,2.3,14.5,M,37.1,M,16.0,0000*69
$GPGSA,M,3,14,31,27,21,42,,,,,,,,3.3,2.3,2.3*39
$GPGSV,3,1,12,14,73,233,38,31,43,019,46,27,22,318,39,21,05,034,19*73
$GPGSV,3,2,12,42,56,343,35,01,12,218,37,08,24,276,28,10,43,117,41*72
$GPGSV,3,3,12,11,20,228,30,22,11,242,10,32,60,164,46,57,65,224,40*71
$GPGGA,081928.000,2728.5663,S,15300.5326,E,2,05,2.3,14.6,M,37.1,M,17.0,0000*6E
$GPGSA,M,3,14,31,27,21,42,,,,,,,,3.3,2.3,2.3*39
$GPGGA,081929.000,2728.5620,S,15300.5374,E,2,05,2.3,14.8,M,37.1,M,18.0,0000*6E
$GPGSA,M,3,14,31,27,21,42,,,,,,,,3.3,2.3,2.3*39
$GPGGA,081930.000,2728.5580,S,15300.5431,E,1,12,0.9,13.9,M,37.1,M,,0000*75
$GPGSA,M,3,14,57,32,31,10,08,27,11,01,22,21,42,1.3,0.9,1.0*38
$GPGGA,081931.000,2728.5536,S,15300.5487,E,1,12,0.9,13.7,M,37.1,M,,0000*7A
$GPGSA,M,3,14,57,32,31,10,08,27,11,01,22,21,42,1.3,0.9,1.0*38
$GPGGA,081932.000,2728.5490,S,15300.5542,E,1,12,0.9,13.9,M,37.1,M,,0000*72
$GPGSA,M,3,14,57,32,31,10,08,27,11,01,22,21,42,1.3,0.9,1.0*38
$GPGSV,3,1,12,14,73,233,38,57,65,224,40,32,60,164,47,31,43,019,45*7A
$GPGSV,3,2,12,10,43,117,42,08,24,276,24,27,22,318,29,11,20,228,28*73
$GPGSV,3,3,12,01,12,218,37,22,11,242,22,21,05,034,22,42,56,343,34*74
$GPGGA,081933.000,2728.5443,S,15300.5596,E,1,12,0.9,13.8,M,37.1,M,,0000*75
$GPGSA,M,3,14,57,32,31,10,08,27,11,01,22,21,42,1.3,0.9,1.0*38
$GPGGA,081934.000,2728.5396,S,15300.5649,E,1,12,0.9,13.7,M,37.1,M,,0000*73
$GPGSA,M,3,14,57,32,31,10,08,27,11,01,22,21,42,1.3,0.9,1.0*38
$GPGGA,081935.000,2728.5348,S,15300.5704,E,1,12,0.9,13.8,M,37.1,M,,0000*76
$GPGSA,M,3,14,57,32,31,10,08,27,11,01,22,21,42,1.3,0.9,1.0*38
$GPGGA,081936.000,2728.5299,S,15300.5760,E,1,12,0.9,13.8,M,37.1,M,,0000*7A
$GPGSA,M,3,14,57,32,31,10,08,27,11,01,22,21,42,1.3,0.9,1.0*38
$GPGGA,081937.000,2728.5250,S,15300.5818,E,1,12,0.9,13.8,M,37.1,M,,0000*7E
$GPGSA,M,3,14,57,32,31,10,08,27,11,01,22,21,42,1.3,0.9,1.0*38
$GPGSV,3,1,12,14,73,233,38,57,65,224,40,32,60,163,47,31,43,019,46*7E
$GPGSV,3,2,12,10,43,117,42,08,24,276,29,27,22,318,29,11,20,228,30*77
$GPGSV,3,3,12,01,12,218,37,22,11,242,34,21,05,034,14,42,56,343,35*77
$GPGGA,081938.000,2728.5201,S,15300.5875,E,1,12,0.9,13.8,M,37.1,M,,0000*7E
$GPGSA,M,3,14,57,32,31,10,08,27,11,01,22,21,42,1.3,0.9,1.0*38
$GPGGA,081939.000,2728.5150,S,15300.5932,E,1,12,0.9,13.9,M,37.1,M,,0000*7B
$GPGSA,M,3,14,57,32,31,10,08,27,11,01,22,21,42,1.3,0.9,1.0*38
$GPGGA,081940.000,2728.5100,S,15300.5989,E,1,12,0.9,14.0,M,37.1,M,,0000*7E
$GPGSA,M,3,14,57,32,31,10,08,27,11,01,22,21,42,1.3,0.9,1.0*38
$GPGGA,081941.000,2728.5051,S,15300.6045,E,1,12,0.9,14.0,M,37.1,M,,0000*70
$GPGSA,M,3,14,57,32,31,10,08,27,11,01,22,21,42,1.3,0.9,1.0*38
$GPGGA,081942.000,2728.5003,S,15300.6100,E,2,05,2.3,14.5,M,37.1,M,2.0,0000*50
$GPGSA,M,3,14,31,27,21,42,,,,,,,,3.3,2.3,2.3*39
$GPGSV,3,1,12,14,73,233,38,31,43,019,45,27,22,318,20,21,05,034,28*7A
$GPGSV,3,2,12,42,56,343,35,01,12,218,37,08,24,276,26,10,43,117,41*7C
$GPGSV,3,3,12,11,20,228,31,22,11,242,30,32,60,163,47,57,65,224,39*7A
$GPGGA,081943.000,2728.4955,S,15300.6154,E,2,05,2.5,14.6,M,37.1,M,3.0,0000*5F
$GPGSA,M,3,14,31,08,21,42,,,,,,,,3.1,2.5,1.8*38
$GPGGA,081944.000,2728.4909,S,15300.6209,E,2,05,2.5,14.7,M,37.1,M,4.0,0000*5C
$GPGSA,M,3,14,31,08,21,42,,,,,,,,3.1,2.5,1.8*38
$GPGGA,081945.000,2728.4863,S,15300.6261,E,2,05,2.5,14.8,M,37.1,M,5.0,0000*50
$GPGSA,M,3,14,31,08,21,42,,,,,,,,3.1,2.5,1.8*38
$GPGGA,081946.000,2728.4817,S,15300.6313,E,2,05,2.5,14.9,M,37.1,M,6.0,0000*56
$GPGSA,M,3,14,31,08,21,42,,,,,,,,3.1,2.5,1.8*38
$GPGGA,081947.000,2728.4776,S,15300.6382,E,2,05,2.5,15.6,M,37.1,M,7.0,0000*58
$GPGSA,M,3,14,31,08,21,42,,,,,,,,3.1,2.5,1.8*38
$GPGSV,3,1,12,14,73,233,39,31,43,019,45,08,24,276,31,21,05,034,17*75
$GPGSV,3,2,12,42,56,343,33,01,12,218,37,10,43,117,42,11,20,228,31*78
$GPGSV,3,3,12,22,11,242,18,27,22,318,18,32,60,163,47,57,65,224,39*7E
$GPGGA,081948.000,2728.4732,S,15300.6445,E,2,06,2.0,16.1,M,37.1,M,8.0,0000*56
$GPGSA,M,3,14,31,08,27,21,42,,,,,,,2.6,2.0,1.8*3E
$GPGGA,081949.000,2728.4688,S,15300.6511,E,2,06,2.0,16.8,M,37.1,M,9.0,0000*5F
$GPGSA,M,3,14,31,08,27,21,42,,,,,,,2.6,2.0,1.8*3E
$GPGGA,081950.000,2728.4648,S,15300.6584,E,2,06,2.0,17.9,M,37.1,M,2.0,0000*5C
$GPGSA,M,3,14,31,08,27,21,42,,,,,,,2.6,2.0,1.8*3E
$GPGGA,081951.000,2728.4600,S,15300.6644,E,2,06,2.0,18.5,M,37.1,M,3.0,0000*5C
$GPGSA,M,3,14,31,08,27,21,42,,,,,,,2.6,2.0,1.8*3E
$GPGGA,081952.000,2728.4560,S,15300.6722,E,2,06,2.0,20.0,M,37.1,M,4.0,0000*52
$GPGSA,M,3,14,31,08,27,21,42,,,,,,,2.6,2.0,1.8*3E
$GPGSV,3,1,12,14,73,233,39,31,43,019,45,08,24,276,27,27,22,318,36*7F
$GPGSV,3,2,12,21,05,034,16,42,56,343,32,01,12,218,37,10,43,117,27*74
$GPGSV,3,3,12,11,20,228,32,22,11,242,17,32,60,163,47,57,65,224,39*7C
$GPGGA,081953.000,2728.4519,S,15300.6793,E,2,06,2.0,20.9,M,37.1,M,5.0,0000*5F
$GPGSA,M,3,14,31,08,27,21,42,,,,,,,2.6,2.0,1.8*3E
$GPGGA,081954.000,2728.4471,S,15300.6852,E,2,06,2.0,21.4,M,37.1,M,6.0,0000*5A
$GPGSA,M,3,14,31,08,27,21,42,,,,,,,2.6,2.0,1.8*3E
$GPGGA,081955.000,2728.4421,S,15300.6909,E,2,06,2.0,21.8,M,37.1,M,7.0,0000*5C
$GPGSA,M,3,14,31,08,27,21,42,,,,,,,2.6,2.0,1.8*3E
$GPGGA,081956.000,2728.4373,S,15300.6968,E,2,06,2.0,22.3,M,37.1,M,8.0,0000*5F
$GPGSA,M,3,14,31,08,27,21,42,,,,,,,2.6,2.0,1.8*3E
$GPGGA,081957.000,2728.4321,S,15300.7018,E,2,06,2.0,22.5,M,37.1,M,9.0,0000*51
$GPGSA,M,3,14,31,08,27,21,42,,,,,,,2.6,2.0,1.8*3E
$GPGSV,3,1,12,14,73,233,39,31,43,019,45,08,24,276,22,27,22,318,31*7D
$GPGSV,3,2,12,21,05,034,15,42,56,343,36,01,12,218,37,10,43,117,42*70
$GPGSV,3,3,12,11,20,228,32,22,11,242,24,32,60,163,47,57,65,224,39*7C
$GPGGA,081958.000,2728.4256,S,15300.7043,E,1,11,1.0,22.0,M,37.1,M,,0000*75
$GPGSA,M,3,14,57,32,31,10,08,11,01,22,21,42,,1.4,1.0,1.0*32
$GPGGA,081959.000,2728.4207,S,15300.7094,E,2,04,2.7,22.0,M,37.1,M,2.0,0000*55
$GPGSA,M,3,14,08,21,42,,,,,,,,,3.4,2.7,2.0*36
$GPGGA,082000.000,2728.4159,S,15300.7148,E,0,00,,22.1,M,37.1,M,,0000*5B
$GPGSA,M,1,,,,,,,,,,,,,,,*12
$GPGGA,082001.000,2728.4107,S,15300.7179,E,2,05,3.6,21.5,M,37.1,M,2.0,0000*54
$GPGSA,M,3,14,31,08,27,42,,,,,,,,5.9,3.6,4.7*38
$GPGGA,082002.000,2728.4059,S,15300.7222,E,2,05,3.6,21.1,M,37.1,M,3.0,0000*55
$GPGSA,M,3,14,31,08,27,42,,,,,,,,5.9,3.6,4.7*38
$GPGSV,3,1,12,14,73,233,39,31,43,019,46,08,24,276,29,27,22,318,37*73
$GPGSV,3,2,12,42,56,343,34,01,12,218,37,10,43,117,37,11,20,228,32*7E
$GPGSV,3,3,12,21,05,034,09,22,11,242,34,32,60,163,47,57,65,224,39*7E
$GPGGA,082003.000,2728.4011,S,15300.7256,E,2,05,3.6,20.3,M,37.1,M,4.0,0000*5F
$GPGSA,M,3,14,31,08,27,42,,,,,,,,5.9,3.6,4.7*38
$GPGGA,082004.000,2728.3964,S,15300.7299,E,2,06,2.0,20.1,M,37.1,M,5.0,0000*50
$GPGSA,M,3,14,31,08,27,21,42,,,,,,,2.6,2.0,1.8*3E
$GPGGA,082005.000,2728.3919,S,15300.7342,E,2,06,2.0,20.0,M,37.1,M,2.0,0000*5A
$GPGSA,M,3,14,31,08,27,21,42,,,,,,,2.6,2.0,1.8*3E
$GPGGA,082006.000,2728.3877,S,15300.7391,E,2,06,2.0,20.0,M,37.1,M,2.0,0000*5E
$GPGSA,M,3,14,31,08,27,21,42,,,,,,,2.6,2.0,1.8*3E
$GPGGA,082007.000,2728.3834,S,15300.7436,E,2,06,2.0,20.2,M,37.1,M,2.0,0000*50
$GPGSA,M,3,14,31,08,27,21,42,,,,,,,2.6,2.0,1.8*3E
$GPGSV,3,1,12,14,73,233,39,31,43,019,46,08,24,276,19,27,22,318,26*70
$GPGSV,3,2,12,21,05,034,14,42,56,343,36,01,12,218,37,10,43,117,41*72
$GPGSV,3,3,12,11,20,228,33,22,11,242,25,32,60,163,47,57,65,224,39*7C
$GPGGA,082008.000,2728.3791,S,15300.7477,E,2,06,2.0,20.1,M,37.1,M,3.0,0000*58
$GPGSA,M,3,14,31,08,27,21,42,,,,,,,2.6,2.0,1.8*3E
$GPGGA,082009.000,2728.3750,S,15300.7520,E,2,06,2.0,20.5,M,37.1,M,4.0,0000*54
$GPGSA,M,3,14,31,08,27,21,42,,,,,,,2.6,2.0,1.8*3E
$GPGGA,082010.000,2728.3710,S,15300.7564,E,2,06,2.0,21.2,M,37.1,M,5.0,0000*5F
$GPGSA,M,3,14,31,08,27,21,42,,,,,,,2.6,2.0,1.8*3E
$GPGGA,082011.000,2728.3669,S,15300.7608,E,2,05,2.5,21.1,M,37.1,M,6.0,0000*5E
$GPGSA,M,3,14,31,08,21,42,,,,,,,,3.1,2.5,1.8*38
